[{"name":"A DESIGN FOR LIVING","location":{"name":"St Andrews Church","address":"20 Cardinal Hayes Place","meetingDetails":"@Duane and Centre behind Federal courthouse enter thru driveway behind Church No meetings on Holidays","state":"NY","zip":"10007","adaAccessible":false,"coordinate":{"latitude":"40.7132514","longitude":"-74.002398"}},"times":[{"day":"Thursdays","startTime":"7:00 AM","endTime":"8:00 AM","type":"OD"},{"day":"Tuesdays","startTime":"7:00 AM","endTime":"8:00 AM","type":"B"}]},{"name":"CHAMBERS STREET","location":{"name":"St. Andrew's Church","address":"20 Cardinal Hayes Place","meetingDetails":"No meetings on Holidays. **LOCATION SUBJECT TO CHANGE- Call Inter-Group","state":"NY","zip":"10007","adaAccessible":false,"coordinate":{"latitude":"40.7132514","longitude":"-74.002398"}},"times":[{"day":"Mondays","startTime":"12:15 PM","endTime":"1:15 PM","type":"OD"},{"day":"Wednesdays","startTime":"12:15 PM","endTime":"1:15 PM","type":"S"},{"day":"Thursdays","startTime":"12:15 PM","endTime":"1:15 PM","type":"B"},{"day":"Fridays","startTime":"12:15 PM","endTime":"1:15 PM","type":"BB"}]},{"name":"CHINATOWN","location":{"name":"Church of the Transfiguration","address":"29 Mott Street","meetingDetails":"","state":"NY","zip":"10013","adaAccessible":false,"coordinate":{"latitude":"40.6639307188879","longitude":"-73.9382749875207"}},"times":[{"day":"Tuesdays","startTime":"6:30 PM","endTime":"7:30 PM","type":"C"}]},{"name":"DOWNTOWN","location":{"name":"St. Margaret's Residence","address":"49 Fulton Street","meetingDetails":"","state":"NY","zip":"10038","adaAccessible":true,"coordinate":{"latitude":"40.7080393","longitude":"-74.0042361"}},"times":[{"day":"Mondays","startTime":"7:00 PM","endTime":"8:00 PM","type":"OD"}]},{"name":"EXCHANGE VIEWS @ JOHN STREET CHURCH","location":{"name":"","address":"44 John Street","meetingDetails":"Thursday 1:30 = Alt. Step/Tradition Email exchangeviews1215@yahoo.com for questions","state":"NY","zip":"10038","adaAccessible":false,"coordinate":{"latitude":"40.6378785","longitude":"-74.1427957"}},"times":[{"day":"Mondays","startTime":"12:15 PM","endTime":"1:15 PM","type":"OD"},{"day":"Tuesdays","startTime":"12:15 PM","endTime":"1:15 PM","type":"S"},{"day":"Thursdays","startTime":"12:15 PM","endTime":"1:15 PM","type":"OD"},{"day":"Mondays","startTime":"1:30 PM","endTime":"2:30 PM","type":"B"},{"day":"Thursdays","startTime":"1:30 PM","endTime":"2:30 PM","type":"S"}]},{"name":"EXCHANGE VIEWS @ ST. MARGARET'S HOUSE","location":{"name":"","address":"49 Fulton Street","meetingDetails":"This is new location as of 9-12-14 M 7:30 am= Trad 1st Monday.","state":"NY","zip":"10038","adaAccessible":true,"coordinate":{"latitude":"40.7080393","longitude":"-74.0042361"}},"times":[{"day":"Mondays","startTime":"6:30 AM","endTime":"7:30 AM","type":"C"},{"day":"Tuesdays","startTime":"6:30 AM","endTime":"7:30 AM","type":"C"},{"day":"Wednesdays","startTime":"6:30 AM","endTime":"7:30 AM","type":"C"},{"day":"Thursdays","startTime":"6:30 AM","endTime":"7:30 AM","type":"S"},{"day":"Fridays","startTime":"6:30 AM","endTime":"7:30 AM","type":"BB"},{"day":"Mondays","startTime":"7:30 AM","endTime":"8:30 AM","type":"S"},{"day":"Tuesdays","startTime":"7:30 AM","endTime":"8:30 AM","type":"OD"},{"day":"Wednesdays","startTime":"7:30 AM","endTime":"8:30 AM","type":"OD"},{"day":"Thursdays","startTime":"7:30 AM","endTime":"8:30 AM","type":"OD"},{"day":"Fridays","startTime":"7:30 AM","endTime":"8:30 AM","type":"B"},{"day":"Sundays","startTime":"7:45 AM","endTime":"8:45 AM","type":"OD"},{"day":"Saturdays","startTime":"7:45 AM","endTime":"8:45 AM","type":"OD"},{"day":"Fridays","startTime":"5:30 PM","endTime":"6:30 PM","type":"B"}]},{"name":"FRIDAY DOWNTOWN","location":{"name":"St. Andrew's Church","address":"20 Cardinal Hayes Place","meetingDetails":"Note: Location Subject to change","state":"NY","zip":"10007","adaAccessible":true,"coordinate":{"latitude":"40.7132514","longitude":"-74.002398"}},"times":[{"day":"Fridays","startTime":"6:00 PM","endTime":"7:00 PM","type":"OD"}]},{"name":"GATEWAY","location":{"name":"St. Peter's Church","address":"22 Barclay Street","meetingDetails":"","state":"NY","zip":null,"adaAccessible":false,"coordinate":{"latitude":"40.7125016","longitude":"-74.0094639"}},"times":[{"day":"Sundays","startTime":"6:00 PM","endTime":"7:00 PM","type":"BB"}]},{"name":"PASSING THE BAR","location":{"name":"St. Andrew's Church","address":"20 Cardinal Hayes Place","meetingDetails":"*Business meeting last Tuesday @ Mar,Jun,Sep & Dec.only. **Promises 1st Wednesday, ***T Last Thursday ** LOCATION IS SUBJECT TO CHANGE","state":"NY","zip":"10007","adaAccessible":true,"coordinate":{"latitude":"40.7132514","longitude":"-74.002398"}},"times":[{"day":"Mondays","startTime":"1:15 PM","endTime":"2:15 PM","type":"B"},{"day":"Tuesdays","startTime":"1:15 PM","endTime":"2:15 PM","type":"C"},{"day":"Wednesdays","startTime":"1:15 PM","endTime":"2:15 PM","type":"C"},{"day":"Thursdays","startTime":"1:15 PM","endTime":"2:15 PM","type":"S"},{"day":"Fridays","startTime":"1:15 PM","endTime":"2:15 PM","type":"BB"}]},{"name":"S.O.B.E.R.","location":{"name":"Saint Peter's Church","address":"22 Barclay Street (Basement)","meetingDetails":"Enter on Church Street Lower floor, Parish Office Room","state":"NY","zip":"10007","adaAccessible":false,"coordinate":{"latitude":"40.7125016","longitude":"-74.0094639"}},"times":[{"day":"Thursdays","startTime":"7:30 PM","endTime":"8:45 PM","type":"OD"}]},{"name":"SANE AND SOBER","location":{"name":"Hazelden Tribeca","address":"283 West Broadway","meetingDetails":"Mental Health Challenges in Sobriety. *Alternating Closed & rotating 1, 2, 3 Step every other week. Open â€“ Last Wednesday.","state":"NY","zip":"10013","adaAccessible":true,"coordinate":{"latitude":"40.6639307188879","longitude":"-73.9382749875207"}},"times":[{"day":"Wednesdays","startTime":"7:00 PM","endTime":"8:00 PM","type":"C"}]},{"name":"SATURDAY AFTERNOON DISCUSSION","location":{"name":"Municipal Union Bldg DC 37","address":"125 Barclay Street","meetingDetails":"Ask security guard for room #","state":"NY","zip":"10007","adaAccessible":false,"coordinate":{"latitude":"40.7143477","longitude":"-74.0130151"}},"times":[{"day":"Saturdays","startTime":"2:00 PM","endTime":"3:15 PM","type":"OD"}]},{"name":"SEAMEN'S GROUP","location":{"name":"St. Margaret's House","address":"49 Fulton Street","meetingDetails":"*Co-ed meeting, all are welcome.","state":"NY","zip":"10038","adaAccessible":true,"coordinate":{"latitude":"40.7080393","longitude":"-74.0042361"}},"times":[{"day":"Tuesdays","startTime":"6:00 PM","endTime":"7:00 PM","type":"S"}]},{"name":"SEAPORT","location":{"name":"St. Margaret's House","address":"49 Fulton Street","meetingDetails":"11th Step Meditation (Mon), Topic (Thu)","state":"NY","zip":"10038","adaAccessible":true,"coordinate":{"latitude":"40.7080393","longitude":"-74.0042361"}},"times":[{"day":"Thursdays","startTime":"12:15 PM","endTime":"1:15 PM","type":"C"},{"day":"Fridays","startTime":"12:15 PM","endTime":"1:15 PM","type":"S"},{"day":"Mondays","startTime":"12:15 PM","endTime":"1:15 PM","type":"S"},{"day":"Wednesdays","startTime":"12:15 PM","endTime":"1:15 PM","type":"BB"},{"day":"Tuesdays","startTime":"12:15 PM","endTime":"1:15 PM","type":"B"}]},{"name":"TOWER","location":{"name":"Church of Saint Andrew","address":"20 Cardinal Hayes Place","meetingDetails":"Step 1st Wednesday","state":"NY","zip":"10007","adaAccessible":false,"coordinate":{"latitude":"40.7132514","longitude":"-74.002398"}},"times":[{"day":"Wednesdays","startTime":"5:30 PM","endTime":"6:30 PM","type":"OD"}]},{"name":"TRIANGLE GROUP","location":{"name":"Tribeca 12 Building","address":"283 West Broadway","meetingDetails":"Walk thru green doors; first floor, rear. Addtl meditation meeting on Sunday at 11:15 if room full","state":"NY","zip":"10013","adaAccessible":true,"coordinate":{"latitude":"40.6639307188879","longitude":"-73.9382749875207"}},"times":[{"day":"Sundays","startTime":"11:00 AM","endTime":"12:00 PM","type":"C"},{"day":"Fridays","startTime":"12:30 PM","endTime":"1:30 PM","type":"BB"},{"day":"Mondays","startTime":"6:30 PM","endTime":"7:30 PM","type":"C"},{"day":"Thursdays","startTime":"6:30 PM","endTime":"7:30 PM","type":"C"}]},{"name":"TRIBECA GROUP @ ST. MARGARET'S HOUSE","location":{"name":"","address":"49 Fulton Street","meetingDetails":"this is the new location as of 9/8/14 tribecagroup2014@gmail.com","state":"NY","zip":"10038","adaAccessible":true,"coordinate":{"latitude":"40.7080393","longitude":"-74.0042361"}},"times":[{"day":"Fridays","startTime":"7:30 PM","endTime":"8:30 PM","type":"S"},{"day":"Saturdays","startTime":"7:30 PM","endTime":"8:30 PM","type":"OD"},{"day":"Tuesdays","startTime":"7:30 PM","endTime":"8:30 PM","type":"BB"},{"day":"Thursdays","startTime":"7:30 PM","endTime":"8:30 PM","type":"B"}]},{"name":"TRIBECA GROUP @ ST. PETER'S CHURCH","location":{"name":"St. Peter's Church","address":"22 Barclay Street- basement chapel","meetingDetails":"Monday step - 3rd and 11th step workshop tribecagroup2014@gmail.com","state":"NY","zip":"10006","adaAccessible":false,"coordinate":{"latitude":"40.7125016","longitude":"-74.0094639"}},"times":[{"day":"Mondays","startTime":"7:45 PM","endTime":"8:45 PM","type":"S"},{"day":"Wednesdays","startTime":"8:00 PM","endTime":"9:00 PM","type":"OD"}]},{"name":"WOMEN'S DOWNTOWN AA STEP MEETING","location":{"name":"St. Andrew's Church","address":"20 Cardinal Hayes Place","meetingDetails":"","state":"NY","zip":"10007","adaAccessible":false,"coordinate":{"latitude":"40.7132514","longitude":"-74.002398"}},"times":[{"day":"Wednesdays","startTime":"1:15 PM","endTime":"2:15 PM","type":"S"}]},{"name":"YOUNG PEOPLE'S DIVERSITY","location":{"name":"Hazelden Center","address":"283 West Broadway","meetingDetails":"Lesbian, Gay, Bi-sexual & Transgendered Focus All are welcome.","state":"NY","zip":"10013","adaAccessible":false,"coordinate":{"latitude":"40.6639307188879","longitude":"-73.9382749875207"}},"times":[{"day":"Wednesdays","startTime":"8:30 PM","endTime":"9:30 PM","type":"C"}]},{"name":"YOUNG PEOPLE'S STEP","location":{"name":"Hazelden Center","address":"283 West Broadway","meetingDetails":"","state":"NY","zip":"10013","adaAccessible":true,"coordinate":{"latitude":"40.6639307188879","longitude":"-73.9382749875207"}},"times":[{"day":"Tuesdays","startTime":"7:45 PM","endTime":"8:45 PM","type":"C"}]},{"name":"YOUTH ENJOYING SOBRIETY (Y.E.S.)","location":{"name":"Hazelden Center","address":"283 W. Broadway","meetingDetails":"Open Anniv. Last Saturday.","state":"NY","zip":"10013","adaAccessible":true,"coordinate":{"latitude":"40.6639307188879","longitude":"-73.9382749875207"}},"times":[{"day":"Saturdays","startTime":"7:00 PM","endTime":"8:15 PM","type":"B"}]},{"name":"A.A. ON THE BOWERY","location":{"name":"University Settlement","address":"273 Bowery","meetingDetails":"","state":"NY","zip":"10002","adaAccessible":true,"coordinate":{"latitude":"40.6639307188879","longitude":"-73.9382749875207"}},"times":[{"day":"Fridays","startTime":"6:00 PM","endTime":"7:00 PM","type":"C"}]},{"name":"AFTER FIVE","location":{"name":"Manhattan Seventh-Day Adventist Church","address":"232 West 11th Street","meetingDetails":"","state":"NY","zip":"10014","adaAccessible":false,"coordinate":{"latitude":"40.736193","longitude":"-74.0028632"}},"times":[{"day":"Thursdays","startTime":"6:15 PM","endTime":"7:15 PM","type":"S"}]},{"name":"AFTERNOON DELIGHT","location":{"name":"Hazelden Center","address":"283 West Broadway","meetingDetails":"Sex inventory 4th step literature meeting Meets 1st and 3rd Saturday of the month from noon-1","state":"NY","zip":"10013","adaAccessible":true,"coordinate":{"latitude":"40.6639307188879","longitude":"-73.9382749875207"}},"times":[{"day":"Saturdays","startTime":"12:00 PM","endTime":"1:00 PM","type":"C"}]},{"name":"ARTISTS IN RECOVERY (A.R.T.)","location":{"name":"Seventh Day Adventist Church","address":"232 W. 11th Street","meetingDetails":"","state":"NY","zip":"10014","adaAccessible":false,"coordinate":{"latitude":"40.736193","longitude":"-74.0028632"}},"times":[{"day":"Sundays","startTime":"6:30 PM","endTime":"7:45 PM","type":"B"}]},{"name":"BAGELS AND BIG BOOK","location":{"name":"","address":"220 West Houston Street","meetingDetails":"NOTE: Meeting only meets on the 1st & 3rd Sunday of each month *Big Book Workshop, Meeting ends at Noon.","state":"NY","zip":"10014","adaAccessible":false,"coordinate":{"latitude":"40.7286385","longitude":"-74.0045871"}},"times":[{"day":"Sundays","startTime":"10:30 AM","endTime":"12:00 PM","type":"OD"}]},{"name":"CENTER MEETING","location":{"name":"Golden Bridge Yoga Center","address":"253 Center Street","meetingDetails":"No shoes worn in meeting location. A short meditation opens the meeting.","state":"NY","zip":"10013","adaAccessible":false,"coordinate":{"latitude":"40.6639307188879","longitude":"-73.9382749875207"}},"times":[{"day":"Mondays","startTime":"5:15 PM","endTime":"6:15 PM","type":"OD"}]},{"name":"EAST VILLAGE SOBER AGNOSTICS","location":{"name":"University Settlement (The Chinatown YMCA)","address":"273 Bowery","meetingDetails":"Ask front desk for meeting location","state":"NY","zip":"10002","adaAccessible":true,"coordinate":{"latitude":"40.6639307188879","longitude":"-73.9382749875207"}},"times":[{"day":"Fridays","startTime":"6:45 PM","endTime":"8:00 PM","type":"OD"}]},{"name":"GREENWICH VILLAGE","location":{"name":"St. Luke's Episcopal School","address":"487 Hudson Street","meetingDetails":"Mon.Step=Rotates Steps 1,2&3, Fri.= T. Last Friday. Parents with children are welcome.","state":"NY","zip":"10014","adaAccessible":false,"coordinate":{"latitude":"40.7325884","longitude":"-74.0066592"}},"times":[{"day":"Mondays","startTime":"7:15 PM","endTime":"8:15 PM","type":"B"},{"day":"Tuesdays","startTime":"7:15 PM","endTime":"8:15 PM","type":"BB"},{"day":"Wednesdays","startTime":"7:15 PM","endTime":"8:15 PM","type":"OD"},{"day":"Fridays","startTime":"8:00 PM","endTime":"9:00 PM","type":"S"},{"day":"Mondays","startTime":"8:30 PM","endTime":"9:30 PM","type":"S"}]},{"name":"GRUPO CENTRAL","location":{"name":"St. Augustine's Church","address":"292 Henry Street","meetingDetails":"Spanish speaking meetings.","state":"NY","zip":"10002","adaAccessible":true,"coordinate":{"latitude":"40.6639307188879","longitude":"-73.9382749875207"}},"times":[{"day":"Sundays","startTime":"3:00 PM","endTime":"4:00 PM","type":"O"},{"day":"Tuesdays","startTime":"7:30 PM","endTime":"8:30 PM","type":"C"},{"day":"Fridays","startTime":"8:00 PM","endTime":"9:00 PM","type":"O"}]},{"name":"HAPPY, JOYOUS AND FREE","location":{"name":"Manhattan Church of The Seventh-day Adventist","address":"232 West 11th Street","meetingDetails":"Topic Meeting for gay men approaching and over 40. All are welcome.","state":"NY","zip":"10014","adaAccessible":true,"coordinate":{"latitude":"40.736193","longitude":"-74.0028632"}},"times":[{"day":"s","startTime":"12:00 AM","endTime":"12:00 AM","type":""},{"day":"Mondays","startTime":"7:00 PM","endTime":"8:00 PM","type":"C"}]},{"name":"LOWER EAST SIDE","location":{"name":"Church of Saint Theresa Rectory","address":"141 Henry Street","meetingDetails":"","state":"NY","zip":"10002","adaAccessible":false,"coordinate":{"latitude":"40.6639307188879","longitude":"-73.9382749875207"}},"times":[{"day":"Tuesdays","startTime":"7:00 PM","endTime":"8:00 PM","type":"C"}]},{"name":"MIDNITE","location":{"name":"","address":"220 West Houston Street","meetingDetails":"Sun.12:30=Meditation, 2am Meetings=Pitch meeting with candlelight. Mon.8pm=Topic, Tues.10pm=T last Tues., Thu.10pm=Problems in Sobriety Sun.8pm=Bus.Meeting last Sun.,Sat.10pm=Anniv.Last","state":"NY","zip":"10014","adaAccessible":false,"coordinate":{"latitude":"40.7286385","longitude":"-74.0045871"}},"times":[{"day":"Mondays","startTime":"12:00 AM","endTime":"1:15 AM","type":"S"},{"day":"Sundays","startTime":"12:00 AM","endTime":"1:15 AM","type":"S"},{"day":"Wednesdays","startTime":"12:00 AM","endTime":"1:15 AM","type":"B"},{"day":"Saturdays","startTime":"12:00 AM","endTime":"1:15 AM","type":"C"},{"day":"Tuesdays","startTime":"12:00 AM","endTime":"1:15 AM","type":"C"},{"day":"Fridays","startTime":"12:00 AM","endTime":"1:15 AM","type":"C"},{"day":"Thursdays","startTime":"12:00 AM","endTime":"1:15 AM","type":"C"},{"day":"Saturdays","startTime":"2:00 AM","endTime":"3:15 AM","type":"OD"},{"day":"Tuesdays","startTime":"2:00 AM","endTime":"3:15 AM","type":"OD"},{"day":"Fridays","startTime":"2:00 AM","endTime":"3:15 AM","type":"OD"},{"day":"Mondays","startTime":"2:00 AM","endTime":"3:15 AM","type":"OD"},{"day":"Thursdays","startTime":"2:00 AM","endTime":"3:15 AM","type":"OD"},{"day":"Sundays","startTime":"2:00 AM","endTime":"3:15 AM","type":"OD"},{"day":"Wednesdays","startTime":"2:00 AM","endTime":"3:15 AM","type":"OD"},{"day":"Saturdays","startTime":"12:30 PM","endTime":"1:30 PM","type":"C"},{"day":"Tuesdays","startTime":"12:30 PM","endTime":"1:30 PM","type":"C"},{"day":"Mondays","startTime":"12:30 PM","endTime":"1:30 PM","type":"C"},{"day":"Thursdays","startTime":"12:30 PM","endTime":"1:30 PM","type":"S"},{"day":"Wednesdays","startTime":"12:30 PM","endTime":"1:30 PM","type":"C"},{"day":"Fridays","startTime":"12:30 PM","endTime":"1:30 PM","type":"C"},{"day":"Sundays","startTime":"12:30 PM","endTime":"1:30 PM","type":"C"},{"day":"Tuesdays","startTime":"5:15 PM","endTime":"6:15 PM","type":"C"},{"day":"Fridays","startTime":"5:15 PM","endTime":"6:15 PM","type":"C"},{"day":"Thursdays","startTime":"5:15 PM","endTime":"6:15 PM","type":"C"},{"day":"Sundays","startTime":"5:15 PM","endTime":"6:15 PM","type":"S"},{"day":"Wednesdays","startTime":"5:15 PM","endTime":"6:15 PM","type":"C"},{"day":"Mondays","startTime":"5:15 PM","endTime":"6:15 PM","type":"C"},{"day":"Wednesdays","startTime":"6:30 PM","endTime":"7:30 PM","type":"C"},{"day":"Saturdays","startTime":"6:30 PM","endTime":"7:30 PM","type":"C"},{"day":"Tuesdays","startTime":"6:30 PM","endTime":"7:30 PM","type":"C"},{"day":"Fridays","startTime":"6:30 PM","endTime":"7:30 PM","type":"C"},{"day":"Mondays","startTime":"6:30 PM","endTime":"7:30 PM","type":"B"},{"day":"Thursdays","startTime":"6:30 PM","endTime":"7:30 PM","type":"C"},{"day":"Sundays","startTime":"6:30 PM","endTime":"7:30 PM","type":"C"},{"day":"Sundays","startTime":"8:00 PM","endTime":"9:15 PM","type":"BB"},{"day":"Wednesdays","startTime":"8:00 PM","endTime":"9:15 PM","type":"C"},{"day":"Saturdays","startTime":"8:00 PM","endTime":"9:15 PM","type":"O"},{"day":"Tuesdays","startTime":"8:00 PM","endTime":"9:15 PM","type":"C"},{"day":"Mondays","startTime":"8:00 PM","endTime":"9:15 PM","type":"C"},{"day":"Fridays","startTime":"8:00 PM","endTime":"9:15 PM","type":"S"},{"day":"Thursdays","startTime":"8:00 PM","endTime":"9:15 PM","type":"B"},{"day":"Sundays","startTime":"10:00 PM","endTime":"11:15 PM","type":"C"},{"day":"Wednesdays","startTime":"10:00 PM","endTime":"11:15 PM","type":"C"},{"day":"Saturdays","startTime":"10:00 PM","endTime":"11:15 PM","type":"C"},{"day":"Tuesdays","startTime":"10:00 PM","endTime":"11:15 PM","type":"S"},{"day":"Mondays","startTime":"10:00 PM","endTime":"11:15 PM","type":"C"},{"day":"Fridays","startTime":"10:00 PM","endTime":"11:15 PM","type":"B"},{"day":"Thursdays","startTime":"10:00 PM","endTime":"11:15 PM","type":"C"}]},{"name":"NEW GROUP","location":{"name":"St. John's Lutheran Church","address":"83 Christopher Street (Red Door","meetingDetails":"Gay & Lesbian focus.  All are welcome.","state":"NY","zip":"10014","adaAccessible":false,"coordinate":{"latitude":"40.7335702","longitude":"-74.0037456"}},"times":[{"day":"Sundays","startTime":"12:30 PM","endTime":"1:30 PM","type":"O"},{"day":"Wednesdays","startTime":"6:30 PM","endTime":"7:30 PM","type":"B"},{"day":"Fridays","startTime":"7:30 PM","endTime":"8:30 PM","type":"B"}]},{"name":"PERRY STREET WORKSHOP","location":{"name":"","address":"50 Perry Street","meetingDetails":"No 8:30 or 10:15 1st Wed of month due to Bus. meeting Wed.10:15pm=No BB 1st Wed.","state":"NY","zip":"10014","adaAccessible":false,"coordinate":{"latitude":"40.6639307188879","longitude":"-73.9382749875207"}},"times":[{"day":"Wednesdays","startTime":"7:30 AM","endTime":"8:30 AM","type":"C"},{"day":"Tuesdays","startTime":"7:30 AM","endTime":"8:30 AM","type":"C"},{"day":"Mondays","startTime":"7:30 AM","endTime":"8:30 AM","type":"C"},{"day":"Sundays","startTime":"7:30 AM","endTime":"8:30 AM","type":"OD"},{"day":"Saturdays","startTime":"7:30 AM","endTime":"8:30 AM","type":"C"},{"day":"Fridays","startTime":"7:30 AM","endTime":"8:30 AM","type":"C"},{"day":"Thursdays","startTime":"7:30 AM","endTime":"8:30 AM","type":"S"},{"day":"Thursdays","startTime":"9:00 AM","endTime":"10:00 AM","type":"C"},{"day":"Wednesdays","startTime":"9:00 AM","endTime":"10:00 AM","type":"C"},{"day":"Tuesdays","startTime":"9:00 AM","endTime":"10:00 AM","type":"C"},{"day":"Mondays","startTime":"9:00 AM","endTime":"10:00 AM","type":"OD"},{"day":"Sundays","startTime":"9:00 AM","endTime":"10:00 AM","type":"C"},{"day":"Fridays","startTime":"9:00 AM","endTime":"10:00 AM","type":"C"},{"day":"Saturdays","startTime":"9:30 AM","endTime":"10:00 AM","type":"C"},{"day":"Fridays","startTime":"10:30 AM","endTime":"11:30 AM","type":"C"},{"day":"Sundays","startTime":"11:00 AM","endTime":"12:00 PM","type":"C"},{"day":"Saturdays","startTime":"12:00 PM","endTime":"1:00 PM","type":"C"},{"day":"Fridays","startTime":"12:15 PM","endTime":"1:15 PM","type":"C"},{"day":"Thursdays","startTime":"12:15 PM","endTime":"1:15 PM","type":"C"},{"day":"Wednesdays","startTime":"12:15 PM","endTime":"1:15 PM","type":"C"},{"day":"Tuesdays","startTime":"12:15 PM","endTime":"1:15 PM","type":"S"},{"day":"Mondays","startTime":"12:15 PM","endTime":"1:15 PM","type":"B"},{"day":"Sundays","startTime":"1:00 PM","endTime":"2:00 PM","type":"C"},{"day":"Saturdays","startTime":"2:30 PM","endTime":"3:30 PM","type":"C"},{"day":"Fridays","startTime":"2:30 PM","endTime":"3:30 PM","type":"OD"},{"day":"Thursdays","startTime":"2:30 PM","endTime":"3:30 PM","type":"C"},{"day":"Tuesdays","startTime":"2:30 PM","endTime":"3:30 PM","type":"C"},{"day":"Mondays","startTime":"2:30 PM","endTime":"3:30 PM","type":"C"},{"day":"Wednesdays","startTime":"2:30 PM","endTime":"3:30 PM","type":"B"},{"day":"Sundays","startTime":"3:00 PM","endTime":"4:30 PM","type":"C"},{"day":"Mondays","startTime":"4:00 PM","endTime":"5:00 PM","type":"C"},{"day":"Saturdays","startTime":"4:00 PM","endTime":"5:00 PM","type":"C"},{"day":"Thursdays","startTime":"4:00 PM","endTime":"5:00 PM","type":"C"},{"day":"Wednesdays","startTime":"4:00 PM","endTime":"5:00 PM","type":"OD"},{"day":"Tuesdays","startTime":"4:00 PM","endTime":"5:00 PM","type":"C"},{"day":"Fridays","startTime":"4:00 PM","endTime":"6:00 PM","type":"C"},{"day":"Thursdays","startTime":"5:30 PM","endTime":"6:30 PM","type":"BB"},{"day":"Mondays","startTime":"6:00 PM","endTime":"7:00 PM","type":"C"},{"day":"Saturdays","startTime":"6:00 PM","endTime":"7:00 PM","type":"OD"},{"day":"Sundays","startTime":"6:00 PM","endTime":"7:00 PM","type":"C"},{"day":"Fridays","startTime":"6:00 PM","endTime":"7:00 PM","type":"C"},{"day":"Wednesdays","startTime":"6:00 PM","endTime":"7:00 PM","type":"S"},{"day":"Tuesdays","startTime":"6:00 PM","endTime":"7:00 PM","type":"C"},{"day":"Thursdays","startTime":"7:00 PM","endTime":"8:00 PM","type":"B"},{"day":"Tuesdays","startTime":"8:30 PM","endTime":"9:30 PM","type":"C"},{"day":"Mondays","startTime":"8:30 PM","endTime":"9:30 PM","type":"C"},{"day":"Saturdays","startTime":"8:30 PM","endTime":"9:30 PM","type":"C"},{"day":"Sundays","startTime":"8:30 PM","endTime":"9:30 PM","type":"C"},{"day":"Thursdays","startTime":"8:30 PM","endTime":"9:30 PM","type":"OD"},{"day":"Fridays","startTime":"8:30 PM","endTime":"10:30 PM","type":"S"},{"day":"Wednesdays","startTime":"8:30 PM","endTime":"9:30 PM","type":"C"},{"day":"Tuesdays","startTime":"10:15 PM","endTime":"11:15 PM","type":"C"},{"day":"Mondays","startTime":"10:15 PM","endTime":"11:15 PM","type":"C"},{"day":"Thursdays","startTime":"10:15 PM","endTime":"11:15 PM","type":"C"},{"day":"Wednesdays","startTime":"10:15 PM","endTime":"11:15 PM","type":"BB"},{"day":"Sundays","startTime":"10:30 PM","endTime":"11:30 PM","type":"C"},{"day":"Saturdays","startTime":"11:00 PM","endTime":"12:00 AM","type":"C"},{"day":"Fridays","startTime":"11:00 PM","endTime":"12:00 AM","type":"C"}]},{"name":"PRIMETIME NYC (I)","location":{"name":"Seventh Day Adventist Church","address":"232 West 11th Street","meetingDetails":"","state":"NY","zip":"10014","adaAccessible":false,"coordinate":{"latitude":"40.736193","longitude":"-74.0028632"}},"times":[{"day":"Thursdays","startTime":"6:30 PM","endTime":"7:45 PM","type":"OD"},{"day":"Tuesdays","startTime":"6:30 PM","endTime":"7:45 PM","type":"S"}]},{"name":"RED DOOR","location":{"name":"St. John's Episcopal Church","address":"224 Waverly Place","meetingDetails":"Fri.7:00pm=Promises Meeting All meetings are Gay & Lesbian focused.  All are welcome.","state":"NY","zip":"10014","adaAccessible":false,"coordinate":{"latitude":"40.7360657","longitude":"-74.0019452"}},"times":[{"day":"Sundays","startTime":"7:00 PM","endTime":"8:00 PM","type":"S"},{"day":"Thursdays","startTime":"7:00 PM","endTime":"8:00 PM","type":"B"},{"day":"Fridays","startTime":"7:00 PM","endTime":"8:00 PM","type":"OD"},{"day":"Sundays","startTime":"8:30 PM","endTime":"9:30 PM","type":"OD"},{"day":"Fridays","startTime":"8:30 PM","endTime":"9:30 PM","type":"OD"}]},{"name":"ROOM FOR IMPROVEMENT     (:I)","location":{"name":"St. Anthony's of Padua","address":"154 Sullivan Street","meetingDetails":"Wed.=Topic, Thu.=Promises & Fri.=T Last Fri.","state":"NY","zip":"10012","adaAccessible":false,"coordinate":{"latitude":"40.6793249","longitude":"-74.0142651"}},"times":[{"day":"Mondays","startTime":"7:30 AM","endTime":"8:30 AM","type":"BB"},{"day":"Tuesdays","startTime":"7:30 AM","endTime":"8:30 AM","type":"B"},{"day":"Wednesdays","startTime":"7:30 AM","endTime":"8:30 AM","type":"C"},{"day":"Thursdays","startTime":"7:30 AM","endTime":"8:30 AM","type":"C"},{"day":"Fridays","startTime":"7:30 AM","endTime":"8:30 AM","type":"S"}]},{"name":"ROOM FOR IMPROVEMENT     (:II)","location":{"name":"Chinatown YMCA","address":"273 Bowery Street","meetingDetails":"","state":"NY","zip":"10012","adaAccessible":true,"coordinate":{"latitude":"40.6639307188879","longitude":"-73.9382749875207"}},"times":[{"day":"Sundays","startTime":"7:30 AM","endTime":"8:30 AM","type":"Topic\n\t\t\t"},{"day":"Saturdays","startTime":"7:30 AM","endTime":"8:30 AM","type":"Topic\n\t\t\t"}]},{"name":"SHERIDAN SQUARE FOLLIES","location":{"name":"St. Joseph's Church","address":"371 6th Avenue","meetingDetails":"Gay & Lesbian Focus.  All are welcome.","state":"NY","zip":"10014","adaAccessible":true,"coordinate":{"latitude":"40.6701581","longitude":"-73.9819879"}},"times":[{"day":"Saturdays","startTime":"6:00 PM","endTime":"7:00 PM","type":"B"}]},{"name":"SOHO    (:I)","location":{"name":"St. Anthony of Padua Church","address":"155 Sullivan Street","meetingDetails":"Mon.7pm=Anniv Last Mon., Fri.6:30pm=Interpreted for Deaf and Hard of Hearing. Friday Meeting occasionally changes the location;  please call New York Inter-Group to confirm meeting location.","state":"NY","zip":"10012","adaAccessible":false,"coordinate":{"latitude":"40.7272525","longitude":"-74.0015782"}},"times":[{"day":"Fridays","startTime":"6:30 PM","endTime":"7:30 PM","type":"B"},{"day":"Mondays","startTime":"7:00 PM","endTime":"8:00 PM","type":"B"},{"day":"Fridays","startTime":"8:00 PM","endTime":"9:00 PM","type":"C"},{"day":"Mondays","startTime":"8:30 PM","endTime":"9:30 PM","type":"S"}]},{"name":"SPIRITUAL WORKSHOP","location":{"name":"The Bronfman Cernter @ NYU","address":"7 East 10th Strert","meetingDetails":"Lower level","state":"NY","zip":"10003","adaAccessible":false,"coordinate":{"latitude":"40.7332068","longitude":"-73.9946888"}},"times":[{"day":"Sundays","startTime":"11:00 AM","endTime":"12:15 PM","type":"C"}]},{"name":"T&amp;A","location":{"name":"Seventh Adventist Church","address":"232 West 11th Street","meetingDetails":"Literature","state":"NY","zip":null,"adaAccessible":false,"coordinate":{"latitude":"40.736193","longitude":"-74.0028632"}},"times":[{"day":"Mondays","startTime":"6:30 PM","endTime":"7:30 PM","type":"Women\n\t\t\t"}]},{"name":"TEN PLUS","location":{"name":"St. John's Lutheran Church","address":"81 Christopher Street","meetingDetails":"The speaker will have 10+ years of sobriety. All welcome. Please ring Meeting Bell only","state":"NY","zip":"10014","adaAccessible":false,"coordinate":{"latitude":"40.7335983","longitude":"-74.0035744"}},"times":[{"day":"Tuesdays","startTime":"8:00 PM","endTime":"9:00 PM","type":"C"}]},{"name":"THE CAPTAIN'S TABLE","location":{"name":"University Settlement (The Chinatown YMCA)","address":"273 Bowery","meetingDetails":"Men's Meeting","state":"NY","zip":"10002","adaAccessible":true,"coordinate":{"latitude":"40.6639307188879","longitude":"-73.9382749875207"}},"times":[{"day":"Thursdays","startTime":"7:00 PM","endTime":"8:00 PM","type":"BB"}]},{"name":"TOGETHER WE CAN","location":{"name":"Manhattan Seventh-Day Adventist Church","address":"232 West 11th Street","meetingDetails":"","state":"NY","zip":"10014","adaAccessible":false,"coordinate":{"latitude":"40.736193","longitude":"-74.0028632"}},"times":[{"day":"Tuesdays","startTime":"6:45 PM","endTime":"8:00 PM","type":"S"}]},{"name":"WEDNESDAY FOCUS","location":{"name":"Manhattan Church of The Seventh-day Adventist","address":"232 West 11th Street","meetingDetails":"","state":"NY","zip":"10014","adaAccessible":true,"coordinate":{"latitude":"40.736193","longitude":"-74.0028632"}},"times":[{"day":"Wednesdays","startTime":"6:15 PM","endTime":"7:15 PM","type":"C"}]},{"name":"WEST VILLAGE WOMEN","location":{"name":"St. John's Lutheran Church","address":"83 Christopher Street","meetingDetails":"Focus women 5+ years of sobriety. All are welcome. Enter through Red Door left of church, Buzzer-Meeting Room","state":"NY","zip":"10014","adaAccessible":true,"coordinate":{"latitude":"40.7335702","longitude":"-74.0037456"}},"times":[{"day":"Thursdays","startTime":"6:30 PM","endTime":"7:45 PM","type":"C"}]},{"name":"WOMEN INTO ACTION","location":{"name":"","address":"220 West Houston Street","meetingDetails":"Women's Meeting","state":"NY","zip":"10014","adaAccessible":false,"coordinate":{"latitude":"40.7286385","longitude":"-74.0045871"}},"times":[{"day":"Saturdays","startTime":"4:45 PM","endTime":"5:45 PM","type":"C"}]},{"name":"WOMEN TOGETHER      (:II)","location":{"name":"University Settlement @ Houston Street Center","address":"273 Bowery","meetingDetails":"*Women's Meeting Lesbian focus.  All are welcome.","state":"NY","zip":"10002","adaAccessible":true,"coordinate":{"latitude":"40.6639307188879","longitude":"-73.9382749875207"}},"times":[{"day":"Fridays","startTime":"6:15 PM","endTime":"7:30 PM","type":"C"}]},{"name":"12 CONCEPTS WORKSHOP","location":{"name":"N.Y.U Bronfman Center","address":"7 East 10th Street","meetingDetails":"Only meets on the 1st Wednesday of the month. A.A.'s 12 Concepts Meeting.","state":"NY","zip":"10003","adaAccessible":false,"coordinate":{"latitude":"40.7332068","longitude":"-73.9946888"}},"times":[{"day":"Wednesdays","startTime":"8:15 PM","endTime":"9:15 PM","type":"C"}]},{"name":"22 BELOW","location":{"name":"Gustavus Adolphus Church","address":"155 East 22nd Street","meetingDetails":"Trad.1st Wed., Fri.=Topic, Sat.=Round Robin Sharing All meetings are non-smoking.","state":"NY","zip":"10010","adaAccessible":false,"coordinate":{"latitude":"40.7431787","longitude":"-73.9952777"}},"times":[{"day":"Thursdays","startTime":"12:15 PM","endTime":"1:15 PM","type":"OD"},{"day":"Fridays","startTime":"12:15 PM","endTime":"1:15 PM","type":"C"},{"day":"Mondays","startTime":"12:15 PM","endTime":"1:15 PM","type":"BB"},{"day":"Tuesdays","startTime":"12:15 PM","endTime":"1:15 PM","type":"B"},{"day":"Wednesdays","startTime":"12:15 PM","endTime":"1:15 PM","type":"S"}]},{"name":"AA AT THE THREE JEWELS","location":{"name":"Three Jewels Community Center","address":"61 Fourth Avenue","meetingDetails":"Topic meeting, focus is on meditation Thursday meeting ends at 7:10","state":"NY","zip":"10003","adaAccessible":false,"coordinate":{"latitude":"40.6639307188879","longitude":"-73.9382749875207"}},"times":[{"day":"Thursdays","startTime":"6:00 PM","endTime":"7:15 PM","type":"Meditation\n\t\t\t"},{"day":"Sundays","startTime":"7:00 PM","endTime":"8:30 PM","type":"Meditation\n\t\t\t"}]},{"name":"AGNOSTICS AT NOON","location":{"name":"Lesbian, Gay, Bi-Sexual &amp; Transgender Community Center","address":"208 West 13th Street","meetingDetails":"GLBT Focus. All are welcome.","state":"NY","zip":"10011","adaAccessible":false,"coordinate":{"latitude":"40.7381228","longitude":"-74.0010304"}},"times":[{"day":"Thursdays","startTime":"12:00 PM","endTime":"1:00 PM","type":"C"}]},{"name":"ALIVE AGAIN","location":{"name":"Seafarers &amp; Intl House","address":"123 East 15th Street","meetingDetails":"","state":"NY","zip":"10003","adaAccessible":true,"coordinate":{"latitude":"40.7346341","longitude":"-73.9879773"}},"times":[{"day":"Saturdays","startTime":"1:00 PM","endTime":"2:00 PM","type":"S"}]},{"name":"AT BILL'S PLACE","location":{"name":"Calvary Church Parish House","address":"61 Gramercy Park North","meetingDetails":"","state":"NY","zip":"10010","adaAccessible":false,"coordinate":{"latitude":"40.7387068","longitude":"-73.986572"}},"times":[{"day":"Wednesdays","startTime":"6:30 PM","endTime":"7:30 PM","type":"C"}]},{"name":"ATLANTIC BY THE BOOK","location":{"name":"Gustavus Adolphus Lutheran Church","address":"155 East 22nd Street","meetingDetails":"","state":"NY","zip":"10010","adaAccessible":true,"coordinate":{"latitude":"40.7431787","longitude":"-73.9952777"}},"times":[{"day":"Wednesdays","startTime":"7:00 PM","endTime":"8:00 PM","type":"BB"}]},{"name":"ATLANTIC DOWNTOWN","location":{"name":"Mabel Bacon High School of the Future","address":"127 East 22nd Street","meetingDetails":"no entry before 5:30","state":"NY","zip":"10010","adaAccessible":true,"coordinate":{"latitude":"40.7390247","longitude":"-73.9854161"}},"times":[{"day":"Sundays","startTime":"7:00 PM","endTime":"8:00 PM","type":"O"}]},{"name":"AVENUE B CLEAN AND DRY","location":{"name":"Trinity Lower East Side Lutheran Parish","address":"602 East 9th Street","meetingDetails":"Ground Floor Anniversaries last Thursday of month","state":"NY","zip":"10009","adaAccessible":true,"coordinate":{"latitude":"40.7260409","longitude":"-73.9800393"}},"times":[{"day":"Thursdays","startTime":"7:00 PM","endTime":"8:15 PM","type":"C"}]},{"name":"BIG BOOK MAGIC","location":{"name":"McBurney YMCA","address":"125 West 14th Street","meetingDetails":"","state":"NY","zip":"10011","adaAccessible":true,"coordinate":{"latitude":"40.7379244","longitude":"-73.9976813"}},"times":[{"day":"Thursdays","startTime":"7:45 PM","endTime":"8:45 PM","type":"BB"}]},{"name":"CHELSEA MORNINGS","location":{"name":"St. Peters Episcopal Church- Rectory","address":"346 W. 20th Street","meetingDetails":"Wed. alternates between Step and Tradition","state":"NY","zip":"10011","adaAccessible":false,"coordinate":{"latitude":"40.7441452","longitude":"-74.0019191"}},"times":[{"day":"Tuesdays","startTime":"8:00 AM","endTime":"9:00 AM","type":"B"},{"day":"Mondays","startTime":"8:00 AM","endTime":"9:00 AM","type":"OD"},{"day":"Wednesdays","startTime":"8:00 AM","endTime":"9:00 AM","type":"S"},{"day":"Thursdays","startTime":"8:00 AM","endTime":"9:00 AM","type":"BB"},{"day":"Fridays","startTime":"8:00 AM","endTime":"9:00 AM","type":"C"},{"day":"Saturdays","startTime":"8:00 AM","endTime":"9:00 AM","type":"OD"}]},{"name":"CHELSEA NOONERS","location":{"name":"McBurney YMCA","address":"125 West 14th Street","meetingDetails":"Anniv. Last Thursday All Meetings Are Non-Smoking","state":"NY","zip":"10011","adaAccessible":true,"coordinate":{"latitude":"40.7379244","longitude":"-73.9976813"}},"times":[{"day":"Tuesdays","startTime":"12:00 PM","endTime":"1:00 PM","type":"C"},{"day":"Thursdays","startTime":"12:00 PM","endTime":"1:00 PM","type":"C"}]},{"name":"COMPLETE ABANDON","location":{"name":"Our Lady of Immaculate Conception","address":"414 East 14th Street","meetingDetails":"","state":"NY","zip":"10009","adaAccessible":true,"coordinate":{"latitude":"40.741201","longitude":"-74.006368"}},"times":[{"day":"Wednesdays","startTime":"8:30 PM","endTime":"9:30 PM","type":"S"}]},{"name":"COMPLETELY SOBER","location":{"name":"Fulton Senior Center","address":"119 Ninth Avenue","meetingDetails":"Non-Smoking Meeting.","state":"NY","zip":"10011","adaAccessible":true,"coordinate":{"latitude":"40.6639307188879","longitude":"-73.9382749875207"}},"times":[{"day":"Mondays","startTime":"6:45 PM","endTime":"8:00 PM","type":"OD"}]},{"name":"CROSSROADS","location":{"name":"Christopher House","address":"202 West 24 Street","meetingDetails":"Check in at front desk all meetings are non-smoking","state":"NY","zip":"10011","adaAccessible":true,"coordinate":{"latitude":"40.6639307188879","longitude":"-73.9382749875207"}},"times":[{"day":"Saturdays","startTime":"4:00 PM","endTime":"5:00 PM","type":"O"},{"day":"Sundays","startTime":"4:00 PM","endTime":"5:00 PM","type":"O"}]},{"name":"EAST MEETS WEST IN SOBRIETY","location":{"name":"Brotherhood Synagogue","address":"28 Gramercy Park South","meetingDetails":"*Open Anniv Last Wednesday Non-Smoking Meeting.","state":"NY","zip":"10003","adaAccessible":true,"coordinate":{"latitude":"40.7371499","longitude":"-73.9853123"}},"times":[{"day":"Wednesdays","startTime":"7:00 PM","endTime":"8:00 PM","type":"C"}]},{"name":"EAST VILLAGE GROUP","location":{"name":"Middle Collegiate Church","address":"50 East 7th Street","meetingDetails":"LGBT; all welcome. Tues 7pm=Artists in Recovery, all welcome. 8:30 1st Tues of Month Bus mtg. at 8:05","state":"NY","zip":"10003","adaAccessible":false,"coordinate":{"latitude":"40.6519369","longitude":"-73.9750389"}},"times":[{"day":"Tuesdays","startTime":"7:00 PM","endTime":"8:00 PM","type":"O"},{"day":"Saturdays","startTime":"7:00 PM","endTime":"8:00 PM","type":"B"},{"day":"Saturdays","startTime":"7:00 PM","endTime":"8:00 PM","type":"OD"},{"day":"Sundays","startTime":"7:00 PM","endTime":"8:00 PM","type":"BB"},{"day":"Tuesdays","startTime":"7:00 PM","endTime":"8:15 PM","type":"S"},{"day":"Tuesdays","startTime":"8:30 PM","endTime":"9:30 PM","type":"C"},{"day":"Saturdays","startTime":"8:30 PM","endTime":"9:30 PM","type":"C"}]},{"name":"EXPERIENCE STRENGTH AND HOPE","location":{"name":"University Settlement House","address":"273 Bowery","meetingDetails":"","state":"NY","zip":"10003","adaAccessible":true,"coordinate":{"latitude":"40.6639307188879","longitude":"-73.9382749875207"}},"times":[{"day":"Wednesdays","startTime":"7:00 PM","endTime":"8:00 PM","type":"C"}]},{"name":"GRACE ON BROADWAY","location":{"name":"Grace Church Office Building","address":"802 Broadway","meetingDetails":"","state":"NY","zip":"10003","adaAccessible":true,"coordinate":{"latitude":"40.6639307188879","longitude":"-73.9382749875207"}},"times":[{"day":"Mondays","startTime":"8:15 AM","endTime":"9:15 AM","type":"O"},{"day":"Tuesdays","startTime":"8:15 AM","endTime":"9:15 AM","type":"C"},{"day":"Thursdays","startTime":"8:15 AM","endTime":"9:15 AM","type":"C"}]},{"name":"GRAMERCY","location":{"name":"Brothhood Synagogue","address":"28 Grammercy Park South","meetingDetails":"Last Mon.6:30pm=Anniv Last Thursday Tradition","state":"NY","zip":"10010","adaAccessible":true,"coordinate":{"latitude":"40.7371499","longitude":"-73.9853123"}},"times":[{"day":"Mondays","startTime":"6:30 PM","endTime":"7:30 PM","type":"C"},{"day":"Thursdays","startTime":"6:30 PM","endTime":"7:30 PM","type":"S"}]},{"name":"GRATEFUL GROUP OF A.A.","location":{"name":"Saint George Episcopal Church","address":"209 East 16th Street","meetingDetails":"Tue.Topic=Gratitude, Thu=11th Step Meditation Meeting,","state":"NY","zip":"10003","adaAccessible":false,"coordinate":{"latitude":"40.7345135","longitude":"-73.9854432"}},"times":[{"day":"Mondays","startTime":"5:00 PM","endTime":"6:00 PM","type":"B"},{"day":"Fridays","startTime":"5:00 PM","endTime":"6:00 PM","type":"BB"},{"day":"Tuesdays","startTime":"5:00 PM","endTime":"6:00 PM","type":"O"},{"day":"Thursdays","startTime":"5:00 PM","endTime":"6:00 PM","type":"Meditation\n\t\t\t"},{"day":"Sundays","startTime":"5:00 PM","endTime":"6:00 PM","type":"O"},{"day":"Wednesdays","startTime":"5:00 PM","endTime":"6:00 PM","type":"S"},{"day":"Mondays","startTime":"6:15 PM","endTime":"7:00 PM","type":"S"}]},{"name":"GRUPO EL MILAGRO","location":{"name":"Church of the Nativity","address":"44 2nd Avenue","meetingDetails":"Spanish speaking meeting.","state":"NY","zip":"10003","adaAccessible":false,"coordinate":{"latitude":"40.7251086","longitude":"-73.9899858"}},"times":[{"day":"Sundays","startTime":"8:00 PM","endTime":"9:00 PM","type":"O"}]},{"name":"GRUPO GRATITUD","location":{"name":"Our Lady of Guadalupe Church","address":"229 West 14th Street","meetingDetails":"Mon=Step 1st Mon. Spanish speaking meetings.","state":"NY","zip":"10011","adaAccessible":false,"coordinate":{"latitude":"40.7392489","longitude":"-74.0008788"}},"times":[{"day":"Mondays","startTime":"8:00 PM","endTime":"9:00 PM","type":"C"},{"day":"Tuesdays","startTime":"8:00 PM","endTime":"9:00 PM","type":"O"}]},{"name":"GRUPO SOBRIEDAD","location":{"name":"Our Lady of Guadalupe Church","address":"229 West 14th Street","meetingDetails":"Spanish speaking meeting.","state":"NY","zip":"10011","adaAccessible":false,"coordinate":{"latitude":"40.7392489","longitude":"-74.0008788"}},"times":[{"day":"Tuesdays","startTime":"1:00 PM","endTime":"2:00 PM","type":"C"}]},{"name":"HIGH NOON","location":{"name":"Lesbian, Gay, Bi-Sexual &amp; Transgender Community Center","address":"208 West 13th Street","meetingDetails":"Interpreted for the deaf and hard of hearing Check listing at the center for the room number.","state":"NY","zip":"10011","adaAccessible":true,"coordinate":{"latitude":"40.7381228","longitude":"-74.0010304"}},"times":[{"day":"Sundays","startTime":"12:00 PM","endTime":"1:00 PM","type":"O"}]},{"name":"JUST FOR TODAY","location":{"name":"Brotherhood Synagogue","address":"28 Gramercy Park South","meetingDetails":"Please Do Not Call the Synagogue for Meeting Info.","state":"NY","zip":"10003","adaAccessible":true,"coordinate":{"latitude":"40.7371499","longitude":"-73.9853123"}},"times":[{"day":"Tuesdays","startTime":"7:00 PM","endTime":"8:00 PM","type":"S"}]},{"name":"LAeX","location":{"name":"Lesbian, Gay, Bisexual, &amp; Transgender Community Center","address":"208 W 13th Street","meetingDetails":"LA Transplants/Vistors    All Welcome","state":"NY","zip":"10001","adaAccessible":true,"coordinate":{"latitude":"40.7381228","longitude":"-74.0010304"}},"times":[{"day":"Saturdays","startTime":"8:00 PM","endTime":"9:00 PM","type":"O"}]},{"name":"LEARNING TO LIVE ( :1)","location":{"name":"The Upright Citizens Brigade Theatre","address":"307 W. 26th St.","meetingDetails":"","state":"NY","zip":"10011","adaAccessible":true,"coordinate":{"latitude":"40.6427157","longitude":"-73.9524417"}},"times":[{"day":"Thursdays","startTime":"12:00 PM","endTime":"1:00 AM","type":"C"},{"day":"Mondays","startTime":"12:00 PM","endTime":"1:00 PM","type":"B"},{"day":"Tuesdays","startTime":"12:00 PM","endTime":"1:00 PM","type":"BB"},{"day":"Wednesdays","startTime":"12:00 PM","endTime":"1:00 PM","type":"S"},{"day":"Fridays","startTime":"12:00 PM","endTime":"1:00 PM","type":"OD"}]},{"name":"LEARNING TO LIVE ( :II)","location":{"name":"St. Columba Church","address":"343 West 25th Street","meetingDetails":"","state":"NY","zip":"10001","adaAccessible":false,"coordinate":{"latitude":"40.747411","longitude":"-73.9992698"}},"times":[{"day":"Mondays","startTime":"7:00 PM","endTime":"8:00 PM","type":"O"}]},{"name":"LIVING NOW","location":{"name":"Theatre 80","address":"80 St. Mark's Place","meetingDetails":"Tue.7pm=4th & 5th Step Workshop, **Beginners 3 speaker panel Sat.& Sun.10am Meeting is in the main theatre.","state":"NY","zip":"10003","adaAccessible":false,"coordinate":{"latitude":"40.7276521","longitude":"-73.9857329"}},"times":[{"day":"Saturdays","startTime":"10:00 AM","endTime":"11:00 AM","type":"O"},{"day":"Sundays","startTime":"10:00 AM","endTime":"11:00 AM","type":"OD"},{"day":"Sundays","startTime":"10:15 AM","endTime":"11:15 AM","type":"C"},{"day":"Thursdays","startTime":"1:00 PM","endTime":"2:00 PM","type":"S"},{"day":"Saturdays","startTime":"1:00 PM","endTime":"2:00 PM","type":"OD"},{"day":"Mondays","startTime":"1:00 PM","endTime":"2:00 PM","type":"OD"},{"day":"Tuesdays","startTime":"1:00 PM","endTime":"2:00 PM","type":"O"},{"day":"Wednesdays","startTime":"1:00 PM","endTime":"2:00 PM","type":"OD"},{"day":"Fridays","startTime":"1:00 PM","endTime":"2:00 PM","type":"BB"},{"day":"Sundays","startTime":"2:00 PM","endTime":"3:00 PM","type":"BB"},{"day":"Saturdays","startTime":"5:30 PM","endTime":"6:30 PM","type":"B"},{"day":"Wednesdays","startTime":"6:00 PM","endTime":"7:00 PM","type":"B"},{"day":"Thursdays","startTime":"7:00 PM","endTime":"8:00 PM","type":"S"},{"day":"Tuesdays","startTime":"7:00 PM","endTime":"8:00 PM","type":"S"}]},{"name":"LIVING TODAY","location":{"name":"Lesbian, Gay, Bi-Sexual &amp; Transgender Community Center","address":"208 West 13th Street","meetingDetails":"Gay & lesbian focus.  All are welcome.","state":"NY","zip":"10011","adaAccessible":true,"coordinate":{"latitude":"40.7381228","longitude":"-74.0010304"}},"times":[{"day":"Sundays","startTime":"6:45 PM","endTime":"7:45 PM","type":"S"},{"day":"Sundays","startTime":"8:00 PM","endTime":"9:00 PM","type":"O"}]},{"name":"MADISON PARK BEGINNERS","location":{"name":"Intercare","address":"51 East 25th Street","meetingDetails":"","state":"NY","zip":"10010","adaAccessible":true,"coordinate":{"latitude":"40.7419488","longitude":"-73.9861549"}},"times":[{"day":"Wednesdays","startTime":"10:00 AM","endTime":"11:00 AM","type":"B"},{"day":"Thursdays","startTime":"5:30 PM","endTime":"6:30 PM","type":"B"}]},{"name":"MANHATTAN","location":{"name":"Gustavus Adolphus Church","address":"155 East 22nd Street","meetingDetails":"Open Anniv Last Tuesday. All meetings are non-smoking.","state":"NY","zip":"10010","adaAccessible":false,"coordinate":{"latitude":"40.7431787","longitude":"-73.9952777"}},"times":[{"day":"Tuesdays","startTime":"7:00 PM","endTime":"8:00 PM","type":"B"},{"day":"Fridays","startTime":"7:00 PM","endTime":"8:15 PM","type":"S"}]},{"name":"N.Y.U. (NOW YOU UNDERSTAND)","location":{"name":"Bronfman Center","address":"7 East 10th Street","meetingDetails":"Tue.2pm=11th Step Meditation, Thu.12:30pm=Topic, Fri.12:30pm Note: There Is No 2:00 Meeting On The Last Day Of The Month Anniv. Last Weekday of the Month","state":"NY","zip":"10003","adaAccessible":false,"coordinate":{"latitude":"40.7332068","longitude":"-73.9946888"}},"times":[{"day":"Fridays","startTime":"12:30 PM","endTime":"1:30 PM","type":"S"},{"day":"Mondays","startTime":"12:30 PM","endTime":"1:30 PM","type":"C"},{"day":"Tuesdays","startTime":"12:30 PM","endTime":"1:30 PM","type":"BB"},{"day":"Wednesdays","startTime":"12:30 PM","endTime":"1:30 PM","type":"B"},{"day":"Thursdays","startTime":"12:30 PM","endTime":"1:30 PM","type":"C"},{"day":"Fridays","startTime":"2:00 PM","endTime":"3:00 PM","type":"B"},{"day":"Mondays","startTime":"2:00 PM","endTime":"3:00 PM","type":"C"},{"day":"Tuesdays","startTime":"2:00 PM","endTime":"3:00 PM","type":"S"},{"day":"Wednesdays","startTime":"2:00 PM","endTime":"3:00 PM","type":"BB"},{"day":"Thursdays","startTime":"2:00 PM","endTime":"3:00 PM","type":"C"}]},{"name":"NEVER HAD A LEGAL DRINK","location":{"name":"German Evangelist Lutheran Church of St. Paul","address":"315 West 22nd Street","meetingDetails":"Anniv. Last Thursday","state":"NY","zip":"10011","adaAccessible":false,"coordinate":{"latitude":"40.6592027","longitude":"-73.9911184"}},"times":[{"day":"Thursdays","startTime":"8:00 PM","endTime":"9:00 PM","type":"OD"}]},{"name":"NEW LIFE IN SOBRIETY","location":{"name":"Friends Meeting House","address":"15 Rutherford Place","meetingDetails":"T 1st Monday, Anniv Last Friday. All meetings are non-smoking.","state":"NY","zip":"10003","adaAccessible":false,"coordinate":{"latitude":"40.7337834","longitude":"-73.985098"}},"times":[{"day":"Fridays","startTime":"7:00 PM","endTime":"8:00 PM","type":"B"},{"day":"Mondays","startTime":"7:00 PM","endTime":"8:30 PM","type":"S"},{"day":"Fridays","startTime":"8:30 PM","endTime":"9:30 PM","type":"C"}]},{"name":"NINJAS IN RECOVERY","location":{"name":"The Realization Center","address":"25 East 15th- Conference Room H","meetingDetails":"","state":"NY","zip":"10003","adaAccessible":false,"coordinate":{"latitude":"40.7361047","longitude":"-73.9914936"}},"times":[{"day":"Wednesdays","startTime":"8:00 PM","endTime":"9:00 PM","type":"S"}]},{"name":"NINTH AVENUE           (:II)","location":{"name":"General Theological Seminary","address":"175 9th Avenue","meetingDetails":"Fri.6pm OD=11th Step Meditation, Fri.7:15pm O=Anniv Last Friday, +HIV Topic LGBTQ Friendly.  All are welcome. Fri 7:15 CD=Relationships in Sobriety Business meeting at Holy Apostoles on 1st Monday a","state":"NY","zip":"10011","adaAccessible":false,"coordinate":{"latitude":"40.6717748","longitude":"-73.9913909"}},"times":[{"day":"Fridays","startTime":"6:00 PM","endTime":"7:00 PM","type":"B"},{"day":"Fridays","startTime":"6:00 PM","endTime":"7:00 PM","type":"C"},{"day":"Fridays","startTime":"6:00 PM","endTime":"7:00 PM","type":"OD"},{"day":"Fridays","startTime":"7:15 PM","endTime":"8:15 PM","type":"BB"},{"day":"Fridays","startTime":"7:15 PM","endTime":"8:15 PM","type":"C"},{"day":"Fridays","startTime":"7:15 PM","endTime":"8:15 PM","type":"C"},{"day":"Fridays","startTime":"7:15 PM","endTime":"8:15 PM","type":"O"},{"day":"Fridays","startTime":"8:30 PM","endTime":"9:30 PM","type":"C"}]},{"name":"OADW (ONCE A DRUNK WOMAN)","location":{"name":"The Realization Center","address":"19 Union Square West","meetingDetails":"Women's Meeting except for last Tuesday of the month.","state":"NY","zip":"10003","adaAccessible":true,"coordinate":{"latitude":"40.6639307188879","longitude":"-73.9382749875207"}},"times":[{"day":"Tuesdays","startTime":"8:00 PM","endTime":"9:00 PM","type":"C"}]},{"name":"P.A.X","location":{"name":"Gustavus Adolphus Church","address":"155 East 22nd Street","meetingDetails":"Mon.BB Meeting is in the basement, Tue.6:45pm=T Last Tue. Basement is not Wheel Chair Accessible.","state":"NY","zip":"10010","adaAccessible":false,"coordinate":{"latitude":"40.7431787","longitude":"-73.9952777"}},"times":[{"day":"Mondays","startTime":"6:45 PM","endTime":"7:45 PM","type":"B"},{"day":"Mondays","startTime":"6:45 PM","endTime":"7:45 PM","type":"BB"},{"day":"Tuesdays","startTime":"6:45 PM","endTime":"7:45 PM","type":"S"},{"day":"Thursdays","startTime":"6:45 PM","endTime":"7:45 PM","type":"C"},{"day":"Tuesdays","startTime":"6:45 PM","endTime":"7:45 PM","type":"C"}]},{"name":"POT LUCK","location":{"name":"Veterans Administration Hospital","address":"423 East 23rd Street","meetingDetails":"","state":"NY","zip":"10010","adaAccessible":true,"coordinate":{"latitude":"40.7368113","longitude":"-73.9772015"}},"times":[{"day":"Saturdays","startTime":"9:00 PM","endTime":"10:00 PM","type":"OD"}]},{"name":"POTPOURRI","location":{"name":"St. George's Church","address":"209 East 16th Street","meetingDetails":"T Last Tuesday, Thu.=Topic","state":"NY","zip":"10003","adaAccessible":false,"coordinate":{"latitude":"40.7345135","longitude":"-73.9854432"}},"times":[{"day":"Mondays","startTime":"6:00 PM","endTime":"6:00 PM","type":"O"},{"day":"Tuesdays","startTime":"6:00 PM","endTime":"7:00 PM","type":"S"},{"day":"Wednesdays","startTime":"6:00 PM","endTime":"7:00 PM","type":"BB"},{"day":"Thursdays","startTime":"6:00 PM","endTime":"7:00 PM","type":"C"},{"day":"Fridays","startTime":"6:00 PM","endTime":"7:00 PM","type":"B"}]},{"name":"PRIMETIME NYC (II)","location":{"name":"","address":"411 East 12th Street","meetingDetails":"","state":"NY","zip":"10009","adaAccessible":false,"coordinate":{"latitude":"40.729824","longitude":"-73.982816"}},"times":[{"day":"Sundays","startTime":"1:30 PM","endTime":"2:30 PM","type":"OD"}]},{"name":"SATURDAY BEGINNERS","location":{"name":"St. George's Church","address":"209 East 16th Street","meetingDetails":"Beginners meeting meets in Olmsted Hall Big Book topic meeting meets in the Music Room","state":"NY","zip":"10003","adaAccessible":false,"coordinate":{"latitude":"40.7345135","longitude":"-73.9854432"}},"times":[{"day":"Saturdays","startTime":"10:30 AM","endTime":"11:30 AM","type":"B"},{"day":"Saturdays","startTime":"10:30 AM","endTime":"11:30 AM","type":"BB"}]},{"name":"SATURDAY WEEKENDERS","location":{"name":"Epiphany Roman Catholic Church","address":"239 East 21st Street","meetingDetails":"","state":"NY","zip":"10009","adaAccessible":false,"coordinate":{"latitude":"40.743614","longitude":"-73.9982324"}},"times":[{"day":"Saturdays","startTime":"10:00 AM","endTime":"11:00 AM","type":"C"}]},{"name":"SAVE HER A SEAT","location":{"name":"First Presbyterian Church","address":"12 West 12th Street","meetingDetails":"Tue=S Last Tue. & focus is on women with 5 years of sobriety or more.  All are welcome Fri=O Last Fri. & focus is on women with 5 years of sobriety or less.  All are welcome. Friday beginners = Trans Welcome","state":"NY","zip":"10011","adaAccessible":true,"coordinate":{"latitude":"40.7341967","longitude":"-73.9936756"}},"times":[{"day":"Fridays","startTime":"6:30 PM","endTime":"7:45 PM","type":"B"},{"day":"Tuesdays","startTime":"7:15 PM","endTime":"8:30 PM","type":"C"}]},{"name":"SECOND AVENUE CLEAN AND DRY","location":{"name":"Church of the Nativity","address":"44 2nd Avenue","meetingDetails":"","state":"NY","zip":"10003","adaAccessible":false,"coordinate":{"latitude":"40.7251086","longitude":"-73.9899858"}},"times":[{"day":"Sundays","startTime":"5:00 PM","endTime":"6:00 PM","type":"C"}]},{"name":"SOBER MIRACLES","location":{"name":"Lesbian, Gay, Bi-Sexual &amp; Transgender Community Center","address":"208 West 13th Street","meetingDetails":"S&M Lifestyles","state":"NY","zip":"10011","adaAccessible":false,"coordinate":{"latitude":"40.7381228","longitude":"-74.0010304"}},"times":[{"day":"Saturdays","startTime":"9:30 PM","endTime":"10:30 PM","type":"OD"}]},{"name":"SOBRIETY ON THE SQUARE","location":{"name":"Church of the Ascension Parish House","address":"12 West 11th Street","meetingDetails":"T Last Tue., Fri=Topic, Sat=11th Step Meditation","state":"NY","zip":"10011","adaAccessible":false,"coordinate":{"latitude":"40.7341868","longitude":"-73.9957178"}},"times":[{"day":"Mondays","startTime":"7:30 AM","endTime":"8:30 AM","type":"B"},{"day":"Tuesdays","startTime":"7:30 AM","endTime":"8:30 AM","type":"S"},{"day":"Wednesdays","startTime":"7:30 AM","endTime":"8:30 AM","type":"C"},{"day":"Thursdays","startTime":"7:30 AM","endTime":"8:30 AM","type":"BB"},{"day":"Fridays","startTime":"7:30 AM","endTime":"8:30 AM","type":"OD"},{"day":"Saturdays","startTime":"7:30 AM","endTime":"8:30 AM","type":"S"}]},{"name":"SPEAKER MAGIC","location":{"name":"PS 41 Elementary School","address":"116 West 11th Street","meetingDetails":"","state":"NY","zip":"10011","adaAccessible":false,"coordinate":{"latitude":"40.7355598","longitude":"-73.9990141"}},"times":[{"day":"Fridays","startTime":"7:00 PM","endTime":"8:00 PM","type":"O"}]},{"name":"STRAIGHT 12 (:II)  DOWNTOWN SATURDAY NIGHT","location":{"name":"","address":"80 5th Avenue","meetingDetails":"","state":"NY","zip":"10011","adaAccessible":true,"coordinate":{"latitude":"40.7358709","longitude":"-73.9939317"}},"times":[{"day":"Saturdays","startTime":"6:15 PM","endTime":"7:15 PM","type":"C"}]},{"name":"SUNDAY AT SIX","location":{"name":"P.S. 41 (see footnote re: temp location)","address":"116 W. 11th Street","meetingDetails":"TEMPORARILY MEETING AT THE LGBT CENTER 208 W 13TH UNTIL FURTHER NOTICE","state":"NY","zip":"10011","adaAccessible":true,"coordinate":{"latitude":"40.7355598","longitude":"-73.9990141"}},"times":[{"day":"Sundays","startTime":"6:00 PM","endTime":"7:00 PM","type":"BB"}]},{"name":"SUNDAY MORNING MEDITATION","location":{"name":"Gustavus Adolphus Church","address":"155 East 22nd Street","meetingDetails":"Meeting In Basement 11th Step Meditation Meeting","state":"NY","zip":"10010","adaAccessible":false,"coordinate":{"latitude":"40.7431787","longitude":"-73.9952777"}},"times":[{"day":"Sundays","startTime":"9:00 AM","endTime":"10:00 AM","type":"C"}]},{"name":"SUNDAY NOONERS","location":{"name":"East Midtown Plaza (Community Room H)","address":"319 Eastr 24th Street","meetingDetails":"","state":"NY","zip":"10010","adaAccessible":true,"coordinate":{"latitude":"40.6639307188879","longitude":"-73.9382749875207"}},"times":[{"day":"Sundays","startTime":"12:30 PM","endTime":"1:30 PM","type":"OD"}]},{"name":"SURVIVORS IN SOBRIETY","location":{"name":"Beth Israel Hospital @ Karpas Cancer Center Library","address":"10 East Union Square","meetingDetails":"Focus is on dealing with cancer in recovery.  All are welcome","state":"NY","zip":"10003","adaAccessible":true,"coordinate":{"latitude":"40.7309636","longitude":"-73.9880637"}},"times":[{"day":"Tuesdays","startTime":"7:00 PM","endTime":"8:00 PM","type":"OD"}]},{"name":"SVOBODA","location":{"name":"All Saints Ukrainian Orthodox Church","address":"206-208 East 11th Street","meetingDetails":"Sunday=As Bill Sees It Ukrainian language translation is available if needed.","state":"NY","zip":"10003","adaAccessible":false,"coordinate":{"latitude":"40.6639307188879","longitude":"-73.9382749875207"}},"times":[{"day":"Sundays","startTime":"7:00 PM","endTime":"8:00 PM","type":"C"},{"day":"Mondays","startTime":"7:00 PM","endTime":"8:15 PM","type":"B"},{"day":"Tuesdays","startTime":"9:00 PM","endTime":"10:00 PM","type":"OD"}]},{"name":"T.G.I.F. &amp; S.","location":{"name":"Seafarers &amp; International House","address":"123 East 15th Street","meetingDetails":"Fri B = 1st Time in AA Only","state":"NY","zip":"10003","adaAccessible":true,"coordinate":{"latitude":"40.7346341","longitude":"-73.9879773"}},"times":[{"day":"Fridays","startTime":"7:30 PM","endTime":"8:30 PM","type":"B"},{"day":"Fridays","startTime":"7:30 PM","endTime":"8:30 PM","type":"OD"},{"day":"Sundays","startTime":"8:30 PM","endTime":"9:30 PM","type":"O"},{"day":"Fridays","startTime":"8:45 PM","endTime":"9:45 PM","type":"S"}]},{"name":"THE 12th STREET WORKSHOP","location":{"name":"","address":"411 East 12th Street","meetingDetails":"Sun.4:30=Business Mtg Only 1st & Anniv Last Sunday Sun.7:30pm,Tue.5:30,Wed.8:30pm & Sat.10:30am=11th Step Meditation Mon.5:30=Gratitude & Sat.7:30am=AA Grapevine","state":"NY","zip":"10009","adaAccessible":false,"coordinate":{"latitude":"40.729824","longitude":"-73.982816"}},"times":[{"day":"s","startTime":"12:00 AM","endTime":"12:00 AM","type":""},{"day":"Wednesdays","startTime":"6:15 AM","endTime":"7:15 AM","type":"C"},{"day":"Thursdays","startTime":"7:30 AM","endTime":"8:30 AM","type":"OD"},{"day":"Wednesdays","startTime":"7:30 AM","endTime":"8:30 AM","type":"S"},{"day":"Tuesdays","startTime":"7:30 AM","endTime":"8:30 AM","type":"OD"},{"day":"Mondays","startTime":"7:30 AM","endTime":"8:30 AM","type":"OD"},{"day":"Saturdays","startTime":"7:30 AM","endTime":"8:30 AM","type":"C"},{"day":"Fridays","startTime":"7:30 AM","endTime":"8:30 AM","type":"OD"},{"day":"Sundays","startTime":"7:30 AM","endTime":"8:30 AM","type":"S"},{"day":"Saturdays","startTime":"9:00 AM","endTime":"10:00 AM","type":"OD"},{"day":"Sundays","startTime":"9:30 AM","endTime":"10:30 AM","type":"OD"},{"day":"Fridays","startTime":"10:00 AM","endTime":"11:00 AM","type":"OD"},{"day":"Thursdays","startTime":"10:00 AM","endTime":"11:00 AM","type":"BB"},{"day":"Wednesdays","startTime":"10:00 AM","endTime":"11:00 AM","type":"OD"},{"day":"Tuesdays","startTime":"10:00 AM","endTime":"11:00 AM","type":"OD"},{"day":"Mondays","startTime":"10:00 AM","endTime":"11:00 AM","type":"S"},{"day":"Saturdays","startTime":"10:30 AM","endTime":"11:30 AM","type":"S"},{"day":"Sundays","startTime":"11:00 AM","endTime":"12:00 PM","type":"BB"},{"day":"Mondays","startTime":"11:15 AM","endTime":"12:15 PM","type":"BB"},{"day":"Fridays","startTime":"12:30 PM","endTime":"1:30 PM","type":"OD"},{"day":"Thursdays","startTime":"12:30 PM","endTime":"1:30 PM","type":"B"},{"day":"Wednesdays","startTime":"12:30 PM","endTime":"1:30 PM","type":"B"},{"day":"Tuesdays","startTime":"12:30 PM","endTime":"1:30 PM","type":"BB"},{"day":"Mondays","startTime":"12:30 PM","endTime":"1:30 PM","type":"S"},{"day":"Saturdays","startTime":"1:15 PM","endTime":"2:15 PM","type":"C"},{"day":"Sundays","startTime":"1:30 PM","endTime":"2:30 PM","type":"OD"},{"day":"Mondays","startTime":"2:00 PM","endTime":"3:00 PM","type":"S"},{"day":"Fridays","startTime":"2:00 PM","endTime":"3:00 PM","type":"S"},{"day":"Thursdays","startTime":"2:00 PM","endTime":"3:00 PM","type":"OD"},{"day":"Wednesdays","startTime":"2:00 PM","endTime":"3:00 PM","type":"O"},{"day":"Tuesdays","startTime":"2:00 PM","endTime":"3:00 PM","type":"OD"},{"day":"Saturdays","startTime":"2:30 PM","endTime":"3:30 PM","type":"B"},{"day":"Sundays","startTime":"3:00 PM","endTime":"4:00 PM","type":"S"},{"day":"Mondays","startTime":"4:00 PM","endTime":"5:00 PM","type":"OD"},{"day":"Fridays","startTime":"4:00 PM","endTime":"5:00 PM","type":"OD"},{"day":"Thursdays","startTime":"4:00 PM","endTime":"5:00 PM","type":"OD"},{"day":"Wednesdays","startTime":"4:00 PM","endTime":"5:00 PM","type":"OD"},{"day":"Tuesdays","startTime":"4:00 PM","endTime":"5:00 PM","type":"OD"},{"day":"Saturdays","startTime":"4:30 PM","endTime":"5:30 PM","type":"OD"},{"day":"Sundays","startTime":"4:30 PM","endTime":"5:30 PM","type":"OD"},{"day":"Mondays","startTime":"5:30 PM","endTime":"6:30 PM","type":"C"},{"day":"Fridays","startTime":"5:30 PM","endTime":"6:30 PM","type":"S"},{"day":"Thursdays","startTime":"5:30 PM","endTime":"6:30 PM","type":"O"},{"day":"Wednesdays","startTime":"5:30 PM","endTime":"6:30 PM","type":"OD"},{"day":"Tuesdays","startTime":"5:30 PM","endTime":"6:30 PM","type":"S"},{"day":"Saturdays","startTime":"6:00 PM","endTime":"7:00 PM","type":"B"},{"day":"Sundays","startTime":"6:00 PM","endTime":"7:00 PM","type":"OD"},{"day":"Tuesdays","startTime":"7:00 PM","endTime":"8:00 AM","type":"S"},{"day":"Mondays","startTime":"7:00 PM","endTime":"8:00 PM","type":"T"},{"day":"Fridays","startTime":"7:00 PM","endTime":"8:00 PM","type":"S"},{"day":"Thursdays","startTime":"7:00 PM","endTime":"8:00 PM","type":"BB"},{"day":"Wednesdays","startTime":"7:00 PM","endTime":"8:00 PM","type":"C"},{"day":"Sundays","startTime":"7:30 PM","endTime":"8:30 PM","type":"S"},{"day":"Saturdays","startTime":"8:00 PM","endTime":"9:00 PM","type":"C"},{"day":"Mondays","startTime":"8:15 PM","endTime":"9:15 PM","type":"OD"},{"day":"Thursdays","startTime":"8:15 PM","endTime":"9:15 PM","type":"C"},{"day":"Wednesdays","startTime":"8:30 PM","endTime":"9:30 PM","type":"S"},{"day":"Tuesdays","startTime":"8:30 PM","endTime":"9:30 PM","type":"C"},{"day":"Fridays","startTime":"8:30 PM","endTime":"9:30 PM","type":"B"}]},{"name":"THE FELLOWSHIP CLUB","location":{"name":"McBurney YMCA","address":"125 West 14th Street","meetingDetails":"","state":"NY","zip":"10011","adaAccessible":true,"coordinate":{"latitude":"40.7379244","longitude":"-73.9976813"}},"times":[{"day":"Fridays","startTime":"7:00 PM","endTime":"8:00 PM","type":"B"}]},{"name":"TRANSGENDER FOCUS","location":{"name":"LGBT Community Center","address":"208 West 13th Street","meetingDetails":"Trans-female focus","state":"NY","zip":"10011","adaAccessible":true,"coordinate":{"latitude":"40.7381228","longitude":"-74.0010304"}},"times":[{"day":"Sundays","startTime":"4:00 PM","endTime":"5:00 PM","type":"C"}]},{"name":"TWELVE AT SIX","location":{"name":"Beth Israel Phillips Ambulatory Center","address":"10 Union Square East","meetingDetails":"","state":"NY","zip":"10003","adaAccessible":true,"coordinate":{"latitude":"40.6639307188879","longitude":"-73.9382749875207"}},"times":[{"day":"Fridays","startTime":"6:00 PM","endTime":"7:00 PM","type":"S"}]},{"name":"UPON AWAKENING","location":{"name":"St. Francis Residence","address":"155 West 22nd Street","meetingDetails":"","state":"NY","zip":"10011","adaAccessible":true,"coordinate":{"latitude":"40.7431787","longitude":"-73.9952777"}},"times":[{"day":"Sundays","startTime":"12:45 PM","endTime":"1:45 PM","type":"S"}]},{"name":"VILLAGE AGNOSTICS","location":{"name":"Lesbian, Gay, Bi-Sexual &amp; Transgender Community Center","address":"208 West 13th Street","meetingDetails":"Sun.5:30pm meets only on the last Sunday of the month No Prayers - All Welcome - Check listing for Rm #","state":"NY","zip":"10011","adaAccessible":false,"coordinate":{"latitude":"40.7381228","longitude":"-74.0010304"}},"times":[{"day":"Sundays","startTime":"4:00 PM","endTime":"5:00 PM","type":"C"},{"day":"Sundays","startTime":"5:30 PM","endTime":"6:30 PM","type":"S"}]},{"name":"VILLAGE OPEN DISCUSSION  (V.O.D.)","location":{"name":"First Presbyterian Church","address":"12 West 12th Street","meetingDetails":"1st & 3rd Wk=Step/Big Book , 2nd & 4th Wk=Promises","state":"NY","zip":"10011","adaAccessible":true,"coordinate":{"latitude":"40.7341967","longitude":"-73.9936756"}},"times":[{"day":"Tuesdays","startTime":"6:30 PM","endTime":"7:30 PM","type":"OD"}]},{"name":"VILLAGE SOBER","location":{"name":"The Caring Community","address":"20 Washington Square North","meetingDetails":"","state":"NY","zip":"10011","adaAccessible":true,"coordinate":{"latitude":"40.7319436","longitude":"-73.9977667"}},"times":[{"day":"Thursdays","startTime":"3:30 PM","endTime":"4:30 PM","type":"C"}]},{"name":"WEEKENDERS","location":{"name":"14th Street Y","address":"344 East 14th Street","meetingDetails":"Please Do Not Call the Y for Meeting Info.","state":"NY","zip":"10003","adaAccessible":true,"coordinate":{"latitude":"40.7314102","longitude":"-73.9832013"}},"times":[{"day":"Sundays","startTime":"10:00 AM","endTime":"11:00 AM","type":"S"}]},{"name":"WEST 22nd STREET SOBRIETY","location":{"name":"St. Francis Residence","address":"155 West 22nd Street","meetingDetails":"","state":"NY","zip":"10011","adaAccessible":false,"coordinate":{"latitude":"40.7431787","longitude":"-73.9952777"}},"times":[{"day":"Tuesdays","startTime":"6:00 PM","endTime":"7:00 PM","type":"C"}]},{"name":"WESTWINGERS","location":{"name":"Lesbian, Gay, Bi-Sexual &amp; Transgender Community Center","address":"208 West 13th Street","meetingDetails":"Lesbian and gay focus.  All are welcome Meeting format is \"Round Robin.\"","state":"NY","zip":"10011","adaAccessible":true,"coordinate":{"latitude":"40.7381228","longitude":"-74.0010304"}},"times":[{"day":"Tuesdays","startTime":"7:30 PM","endTime":"8:30 PM","type":"OD"},{"day":"Thursdays","startTime":"9:00 PM","endTime":"10:00 PM","type":"OD"}]},{"name":"WHOLESALE MIRACLES","location":{"name":"Trinity Lutheran Church","address":"602 East 9th Street","meetingDetails":"","state":"NY","zip":"10009","adaAccessible":true,"coordinate":{"latitude":"40.7260409","longitude":"-73.9800393"}},"times":[{"day":"Tuesdays","startTime":"7:30 PM","endTime":"8:30 PM","type":"BB"}]},{"name":"WOMEN NOW","location":{"name":"Gay, Lesbian, Bi-Sexual &amp; Transgender Community Center","address":"208 West 13th Street","meetingDetails":"Topic Meeting & Anniv. Last Tuesday.","state":"NY","zip":"10011","adaAccessible":false,"coordinate":{"latitude":"40.7381228","longitude":"-74.0010304"}},"times":[{"day":"Tuesdays","startTime":"6:00 PM","endTime":"7:00 PM","type":"C"}]},{"name":"WOMEN TOGETHER                      (:I)","location":{"name":"Lesbian, Gay, Bi-Sexual &amp; Transgender Community Center","address":"208 West 13th Street","meetingDetails":"Women's Meeting Lesbian Focus.  All are welcome","state":"NY","zip":"10011","adaAccessible":true,"coordinate":{"latitude":"40.7381228","longitude":"-74.0010304"}},"times":[{"day":"Saturdays","startTime":"6:00 PM","endTime":"7:00 PM","type":"C"}]},{"name":"WOMEN'S SATURDAY ELEVENTH STEP MEDITATION","location":{"name":"Realization Center","address":"19 Union Square West","meetingDetails":"11th Step Meditation Meeting.","state":"NY","zip":"10003","adaAccessible":true,"coordinate":{"latitude":"40.6639307188879","longitude":"-73.9382749875207"}},"times":[{"day":"Saturdays","startTime":"11:00 AM","endTime":"12:00 PM","type":"C"}]},{"name":"WORKS IN PROGRESS","location":{"name":"Most Holy Redeemer Church","address":"173 East 3rd Street- basement","meetingDetails":"Rotating Literature","state":"NY","zip":"10009","adaAccessible":false,"coordinate":{"latitude":"40.7233431","longitude":"-73.9843062"}},"times":[{"day":"Mondays","startTime":"7:00 PM","endTime":"8:00 PM","type":"OD"}]},{"name":"YOUNG AND WISE","location":{"name":"Middle Collegiate Church ","address":"50 East 7th Street","meetingDetails":"Basement","state":"NY","zip":"10003","adaAccessible":false,"coordinate":{"latitude":"40.6519369","longitude":"-73.9750389"}},"times":[{"day":"Fridays","startTime":"8:00 PM","endTime":"9:30 PM","type":"C"}]},{"name":"4 THE GRACE","location":{"name":"46th Street Club House","address":"252 West 46th Street","meetingDetails":"","state":"NY","zip":"10036","adaAccessible":false,"coordinate":{"latitude":"40.7593831","longitude":"-73.9872329"}},"times":[{"day":"Sundays","startTime":"4:00 PM","endTime":"5:00 PM","type":"BB"},{"day":"Mondays","startTime":"4:00 PM","endTime":"5:00 PM","type":"BB"},{"day":"Tuesdays","startTime":"4:00 PM","endTime":"5:00 PM","type":"BB"},{"day":"Wednesdays","startTime":"4:00 PM","endTime":"5:00 PM","type":"BB"},{"day":"Thursdays","startTime":"4:00 PM","endTime":"5:00 PM","type":"BB"},{"day":"Fridays","startTime":"4:00 PM","endTime":"5:00 PM","type":"BB"},{"day":"Saturdays","startTime":"4:00 PM","endTime":"5:00 PM","type":"BB"}]},{"name":"42nd AT 9:00pm","location":{"name":"","address":"303 West 42nd Street","meetingDetails":"Sat=A.A. Literature","state":"NY","zip":"10036","adaAccessible":false,"coordinate":{"latitude":"40.7575385","longitude":"-73.9901368"}},"times":[{"day":"Mondays","startTime":"9:15 PM","endTime":"10:15 PM","type":"BB"},{"day":"Wednesdays","startTime":"9:15 PM","endTime":"10:15 PM","type":"C"},{"day":"Thursdays","startTime":"9:15 PM","endTime":"10:15 PM","type":"S"},{"day":"Fridays","startTime":"9:15 PM","endTime":"10:15 PM","type":"S"},{"day":"Saturdays","startTime":"9:15 PM","endTime":"10:15 PM","type":"C"},{"day":"Sundays","startTime":"9:15 PM","endTime":"10:15 PM","type":"OD"},{"day":"Tuesdays","startTime":"9:15 PM","endTime":"10:30 PM","type":"S"}]},{"name":"A NEW FREEDOM","location":{"name":"","address":"303 West 42nd Street","meetingDetails":"Sun=11th Step, Wed=Gratitude, Thu=Daily Reflections","state":"NY","zip":"10036","adaAccessible":false,"coordinate":{"latitude":"40.7575385","longitude":"-73.9901368"}},"times":[{"day":"Wednesdays","startTime":"8:00 AM","endTime":"9:00 AM","type":"OD"},{"day":"Thursdays","startTime":"8:00 AM","endTime":"9:00 AM","type":"C"},{"day":"Fridays","startTime":"8:00 AM","endTime":"9:00 AM","type":"T"},{"day":"Saturdays","startTime":"8:00 AM","endTime":"9:00 AM","type":"OD"},{"day":"Sundays","startTime":"8:00 AM","endTime":"9:00 AM","type":"S"},{"day":"Mondays","startTime":"8:00 AM","endTime":"9:00 AM","type":"S"},{"day":"Tuesdays","startTime":"8:00 AM","endTime":"9:00 AM","type":"BB"}]},{"name":"ABINGDON SQUARE IN CHELSEA","location":{"name":"S.A.G.E.","address":"305 7th Avenue","meetingDetails":"","state":"NY","zip":"10001","adaAccessible":true,"coordinate":{"latitude":"40.7467107","longitude":"-73.9935208"}},"times":[{"day":"Wednesdays","startTime":"8:00 PM","endTime":"9:00 PM","type":"OD"}]},{"name":"ADVENTURES IN SOBRIETY","location":{"name":"Saint Thomas Church","address":"1 West 53rd Street","meetingDetails":"Gay & Lesbian Focus.  All are welcome.","state":"NY","zip":"10019","adaAccessible":true,"coordinate":{"latitude":"40.7602913","longitude":"-73.9752761"}},"times":[{"day":"Fridays","startTime":"7:00 PM","endTime":"8:00 PM","type":"O"}]},{"name":"ALANON HOUSE   (AA Meetings Only)","location":{"name":"","address":"303 West 42nd Street","meetingDetails":"Sun.2pm=Women's Meeting","state":"NY","zip":"10036","adaAccessible":false,"coordinate":{"latitude":"40.7575385","longitude":"-73.9901368"}},"times":[{"day":"Mondays","startTime":"12:00 PM","endTime":"1:00 PM","type":"C"},{"day":"Thursdays","startTime":"12:00 PM","endTime":"1:00 PM","type":"C"},{"day":"Saturdays","startTime":"12:00 PM","endTime":"1:00 PM","type":"B"},{"day":"Tuesdays","startTime":"12:00 PM","endTime":"1:00 PM","type":"C"},{"day":"Sundays","startTime":"12:00 PM","endTime":"1:00 PM","type":"C"},{"day":"Wednesdays","startTime":"12:00 PM","endTime":"1:00 PM","type":"C"},{"day":"Fridays","startTime":"12:00 PM","endTime":"1:00 PM","type":"C"},{"day":"Sundays","startTime":"2:00 PM","endTime":"3:00 PM","type":"C"},{"day":"Mondays","startTime":"2:30 PM","endTime":"3:30 PM","type":"C"},{"day":"Saturdays","startTime":"2:30 PM","endTime":"3:30 PM","type":"C"},{"day":"Thursdays","startTime":"2:30 PM","endTime":"3:30 PM","type":"C"},{"day":"Tuesdays","startTime":"2:30 PM","endTime":"3:30 PM","type":"C"},{"day":"Wednesdays","startTime":"2:30 PM","endTime":"3:30 PM","type":"C"},{"day":"Fridays","startTime":"2:30 PM","endTime":"3:30 PM","type":"C"},{"day":"Mondays","startTime":"6:15 PM","endTime":"7:15 PM","type":"C"},{"day":"Saturdays","startTime":"6:15 PM","endTime":"7:15 PM","type":"C"},{"day":"Thursdays","startTime":"6:15 PM","endTime":"7:15 PM","type":"S"},{"day":"Tuesdays","startTime":"6:15 PM","endTime":"7:15 PM","type":"C"},{"day":"Sundays","startTime":"6:15 PM","endTime":"7:15 PM","type":"C"},{"day":"Wednesdays","startTime":"6:15 PM","endTime":"7:15 PM","type":"C"},{"day":"Fridays","startTime":"6:15 PM","endTime":"7:15 PM","type":"C"},{"day":"Fridays","startTime":"8:00 PM","endTime":"9:00 PM","type":"C"},{"day":"Mondays","startTime":"8:00 PM","endTime":"9:00 PM","type":"C"},{"day":"Saturdays","startTime":"8:00 PM","endTime":"9:00 PM","type":"C"},{"day":"Thursdays","startTime":"8:00 PM","endTime":"9:00 PM","type":"C"},{"day":"Sundays","startTime":"8:00 PM","endTime":"9:00 PM","type":"C"},{"day":"Wednesdays","startTime":"8:00 PM","endTime":"9:00 PM","type":"C"}]},{"name":"AMAZING GRACE","location":{"name":"St. Mary the Virgin Church","address":"133 West 46th Street","meetingDetails":"T Last Thursday All meetings are non-smoking.","state":"NY","zip":"10036","adaAccessible":false,"coordinate":{"latitude":"40.6589343","longitude":"-73.9348705"}},"times":[{"day":"Mondays","startTime":"7:30 AM","endTime":"8:30 AM","type":"C"},{"day":"Tuesdays","startTime":"7:30 AM","endTime":"8:30 AM","type":"C"},{"day":"Wednesdays","startTime":"7:30 AM","endTime":"8:30 AM","type":"C"},{"day":"Thursdays","startTime":"7:30 AM","endTime":"8:30 AM","type":"S"},{"day":"Fridays","startTime":"7:30 AM","endTime":"8:30 AM","type":"C"}]},{"name":"ANNEX                               (:I)","location":{"name":"Hudson Guild","address":"441 West 26th Street","meetingDetails":"","state":"NY","zip":"10001","adaAccessible":true,"coordinate":{"latitude":"40.7495486","longitude":"-74.0015106"}},"times":[{"day":"Saturdays","startTime":"3:00 PM","endTime":"4:00 PM","type":"OD"}]},{"name":"ANNEX    (:II)","location":{"name":"GMHC","address":"446 West 33rd Street","meetingDetails":"Gay & Lesbian focus.  All are welcome.","state":"NY","zip":"10001","adaAccessible":true,"coordinate":{"latitude":"40.753496","longitude":"-73.9989428"}},"times":[{"day":"Tuesdays","startTime":"8:00 PM","endTime":"9:00 PM","type":"O"}]},{"name":"ARTISTS IN RECOVERY","location":{"name":"46th Street Clubhouse","address":"252 West 46th Street","meetingDetails":"All are welcome.","state":"NY","zip":"10036","adaAccessible":false,"coordinate":{"latitude":"40.7593831","longitude":"-73.9872329"}},"times":[{"day":"Tuesdays","startTime":"9:15 PM","endTime":"10:15 PM","type":"C"}]},{"name":"BEGINNERS","location":{"name":"46th Street Club House","address":"252 West 46th Street","meetingDetails":"Readings from Living Sober","state":"NY","zip":"10036","adaAccessible":false,"coordinate":{"latitude":"40.7593831","longitude":"-73.9872329"}},"times":[{"day":"Mondays","startTime":"1:30 PM","endTime":"2:30 PM","type":"B"},{"day":"Tuesdays","startTime":"1:30 PM","endTime":"2:30 PM","type":"B"},{"day":"Wednesdays","startTime":"1:30 PM","endTime":"2:30 PM","type":"B"},{"day":"Thursdays","startTime":"1:30 PM","endTime":"2:30 PM","type":"B"},{"day":"Fridays","startTime":"1:30 PM","endTime":"2:30 PM","type":"B"},{"day":"Saturdays","startTime":"1:30 PM","endTime":"2:30 PM","type":"B"}]},{"name":"BEGINNERS","location":{"name":"46th Street Club House","address":"252 West 46th Street","meetingDetails":"","state":"NY","zip":"10036","adaAccessible":false,"coordinate":{"latitude":"40.7593831","longitude":"-73.9872329"}},"times":[{"day":"Sundays","startTime":"2:45 PM","endTime":"3:45 PM","type":"B"},{"day":"Mondays","startTime":"2:45 PM","endTime":"3:45 PM","type":"B"},{"day":"Tuesdays","startTime":"2:45 PM","endTime":"3:45 PM","type":"B"},{"day":"Wednesdays","startTime":"2:45 PM","endTime":"3:45 PM","type":"B"},{"day":"Thursdays","startTime":"2:45 PM","endTime":"3:45 PM","type":"B"},{"day":"Fridays","startTime":"2:45 PM","endTime":"3:45 PM","type":"B"},{"day":"Saturdays","startTime":"2:45 PM","endTime":"3:45 PM","type":"B"}]},{"name":"BETWEEN SHOWS","location":{"name":"The Actor's Temple","address":"339 West 47th Street","meetingDetails":"Non-Smoking Meeting.","state":"NY","zip":"10036","adaAccessible":false,"coordinate":{"latitude":"40.7612077","longitude":"-73.9891128"}},"times":[{"day":"Wednesdays","startTime":"5:00 PM","endTime":"6:00 PM","type":"C"}]},{"name":"BLUEPRINT FOR LIVING","location":{"name":"","address":"303 West 42nd St Rm 306","meetingDetails":"","state":"NY","zip":"10036","adaAccessible":false,"coordinate":{"latitude":"40.7575385","longitude":"-73.9901368"}},"times":[{"day":"Fridays","startTime":"4:30 PM","endTime":"5:30 AM","type":"Living"},{"day":"Tuesdays","startTime":"4:30 PM","endTime":"4:30 PM","type":"BB"},{"day":"Wednesdays","startTime":"4:30 PM","endTime":"5:30 PM","type":"Meditation\n\t\t\t"},{"day":"Thursdays","startTime":"4:30 PM","endTime":"5:30 PM","type":"As"},{"day":"Saturdays","startTime":"4:30 PM","endTime":"5:30 PM","type":"S"},{"day":"Mondays","startTime":"4:30 PM","endTime":"5:30 PM","type":"Came"}]},{"name":"BOOKSHOP AT NOON","location":{"name":"St. Francis of Assisi Education Center","address":"139 West 31st Street","meetingDetails":"No Meeting on Legal Holidays All meetings are non-smoking.","state":"NY","zip":"10001","adaAccessible":false,"coordinate":{"latitude":"40.647412","longitude":"-73.9480599"}},"times":[{"day":"Mondays","startTime":"12:00 PM","endTime":"1:00 PM","type":"C"},{"day":"Wednesdays","startTime":"12:00 PM","endTime":"1:00 PM","type":"C"},{"day":"Fridays","startTime":"12:00 PM","endTime":"1:00 PM","type":"C"}]},{"name":"CLEAN AND DRY","location":{"name":"Trinity Presbyterian Church","address":"422 West 57th Street","meetingDetails":"","state":"NY","zip":"10019","adaAccessible":false,"coordinate":{"latitude":"40.7682311","longitude":"-73.9868768"}},"times":[{"day":"Sundays","startTime":"5:00 PM","endTime":"5:45 PM","type":"B"},{"day":"Sundays","startTime":"6:00 PM","endTime":"7:00 PM","type":"OD"}]},{"name":"COMMUTERS SPECIAL","location":{"name":"St. John's Hall","address":"211 West 30th Street","meetingDetails":"","state":"NY","zip":"10001","adaAccessible":false,"coordinate":{"latitude":"40.7593831","longitude":"-73.9872329"}},"times":[{"day":"Wednesdays","startTime":"6:00 PM","endTime":"7:00 PM","type":"C"},{"day":"Mondays","startTime":"6:00 PM","endTime":"7:00 PM","type":"S"}]},{"name":"D.I.V.A.  (Divinely Inspired Vivacious Alcoholics)","location":{"name":"46th Street Club House","address":"252 West 46th Street","meetingDetails":"Women's Meeting","state":"NY","zip":"10036","adaAccessible":false,"coordinate":{"latitude":"40.7602913","longitude":"-73.9752761"}},"times":[{"day":"Saturdays","startTime":"12:00 PM","endTime":"1:00 PM","type":"C"}]},{"name":"FIFTH AVENUE STEP","location":{"name":"St. Thomas Church","address":"1 West 53rd Street","meetingDetails":"","state":"NY","zip":"10019","adaAccessible":true,"coordinate":{"latitude":"40.7486793956479","longitude":"-73.9927286472649"}},"times":[{"day":"Saturdays","startTime":"10:00 AM","endTime":"11:00 AM","type":"S"}]},{"name":"FIRESIDE  (:I)  WEEKDAY MEETINGS ONLY","location":{"name":"Trinity Presbyterian Church","address":"422 West 57th Street","meetingDetails":"Tue.12:30 = T 1st Tuesday Beginners upstairs; other meetings in the chapel","state":"NY","zip":"10019","adaAccessible":false,"coordinate":{"latitude":"40.7682311","longitude":"-73.9868768"}},"times":[{"day":"Wednesdays","startTime":"12:00 PM","endTime":"1:00 PM","type":"B"},{"day":"Thursdays","startTime":"12:00 PM","endTime":"1:00 PM","type":"B"},{"day":"Fridays","startTime":"12:00 PM","endTime":"1:00 PM","type":"B"},{"day":"Mondays","startTime":"12:00 PM","endTime":"1:00 PM","type":"B"},{"day":"Tuesdays","startTime":"12:00 PM","endTime":"1:00 PM","type":"B"},{"day":"Wednesdays","startTime":"12:30 PM","endTime":"1:30 PM","type":"BB"},{"day":"Thursdays","startTime":"12:30 PM","endTime":"1:30 PM","type":"S"},{"day":"Fridays","startTime":"12:30 PM","endTime":"1:30 PM","type":"OD"},{"day":"Mondays","startTime":"12:30 PM","endTime":"1:30 PM","type":"OD"},{"day":"Tuesdays","startTime":"12:30 PM","endTime":"1:30 PM","type":"OD"}]},{"name":"FOGLIFTERS","location":{"name":"Fifth Av Presbyterian Church","address":"7 West 55th Street","meetingDetails":"Monday thru Thursday Beginners Meeting 5th floor Monday thru Thursday Open Discussion 3rd floor Wednesday Step Meeting","state":"NY","zip":"10019","adaAccessible":true,"coordinate":{"latitude":"40.7618823","longitude":"-73.9751297"}},"times":[{"day":"s","startTime":"12:00 AM","endTime":"12:00 AM","type":""},{"day":"s","startTime":"12:00 AM","endTime":"12:00 AM","type":""},{"day":"Wednesdays","startTime":"12:30 PM","endTime":"1:30 PM","type":"B"},{"day":"Wednesdays","startTime":"12:30 PM","endTime":"1:30 PM","type":"S"},{"day":"Thursdays","startTime":"12:30 PM","endTime":"1:30 PM","type":"B"},{"day":"Thursdays","startTime":"12:30 PM","endTime":"1:30 PM","type":"OD"},{"day":"Mondays","startTime":"12:30 PM","endTime":"1:30 PM","type":"B"},{"day":"Mondays","startTime":"12:30 PM","endTime":"1:30 PM","type":"OD"},{"day":"Tuesdays","startTime":"12:30 PM","endTime":"1:30 PM","type":"B"},{"day":"Tuesdays","startTime":"12:30 PM","endTime":"1:30 PM","type":"OD"}]},{"name":"FORTY","location":{"name":"46th Street Club House","address":"252 West 46th Street","meetingDetails":"","state":"NY","zip":"10036","adaAccessible":false,"coordinate":{"latitude":"40.7593831","longitude":"-73.9872329"}},"times":[{"day":"Saturdays","startTime":"10:30 PM","endTime":"11:30 PM","type":"C"},{"day":"Sundays","startTime":"10:30 PM","endTime":"11:30 PM","type":"C"},{"day":"Mondays","startTime":"10:30 PM","endTime":"11:30 PM","type":"C"},{"day":"Tuesdays","startTime":"10:30 PM","endTime":"11:30 PM","type":"C"},{"day":"Wednesdays","startTime":"10:30 PM","endTime":"11:30 PM","type":"C"},{"day":"Thursdays","startTime":"10:30 PM","endTime":"11:30 PM","type":"C"},{"day":"Fridays","startTime":"10:30 PM","endTime":"11:30 PM","type":"C"}]},{"name":"GREEN ROOM","location":{"name":"The Actors Fund of America","address":"729 7th Avenue","meetingDetails":"Focus is on those in the entertainment industry.  All are welcome. As Bill Sees It","state":"NY","zip":"10019","adaAccessible":true,"coordinate":{"latitude":"40.7601119","longitude":"-73.9837538"}},"times":[{"day":"Thursdays","startTime":"5:30 PM","endTime":"6:30 PM","type":"C"}]},{"name":"GRUPO BUENA VOLUNTAD","location":{"name":"Apartment Building","address":"538 West 47th Street","meetingDetails":"All meetings are Open Discussion format.","state":"NY","zip":"10036","adaAccessible":false,"coordinate":{"latitude":"40.7634021","longitude":"-73.9948352"}},"times":[{"day":"Mondays","startTime":"8:00 PM","endTime":"9:00 PM","type":"Sp"},{"day":"Wednesdays","startTime":"8:00 PM","endTime":"9:00 PM","type":"Sp"},{"day":"Fridays","startTime":"8:00 PM","endTime":"9:00 PM","type":"Sp"}]},{"name":"HELL'S KITCHEN","location":{"name":"Mount Sinai - Roosevelt Hospital","address":"1000 Tenth Avenue","meetingDetails":"Anniv. 1st Monday, T 2nd & S Last Thursday, NOTE: On legal holidays, the meeting meets on the 1st Floor (Ask for the room at the reception desk)","state":"NY","zip":"10019","adaAccessible":true,"coordinate":{"latitude":"40.6639307188879","longitude":"-73.9382749875207"}},"times":[{"day":"Mondays","startTime":"7:30 PM","endTime":"8:30 PM","type":"OD"},{"day":"Thursdays","startTime":"7:30 PM","endTime":"8:30 PM","type":"C"}]},{"name":"HENRY HUDSON","location":{"name":"","address":"303 West 42nd Street","meetingDetails":"","state":"NY","zip":"10036","adaAccessible":false,"coordinate":{"latitude":"40.7575385","longitude":"-73.9901368"}},"times":[{"day":"Tuesdays","startTime":"7:30 PM","endTime":"8:30 PM","type":"BB"}]},{"name":"JOE AND CHARLIE CD MEETING","location":{"name":"46th Street Club House","address":"252 West 46th Street","meetingDetails":"Big Book Workshop","state":"NY","zip":"10036","adaAccessible":false,"coordinate":{"latitude":"40.7593831","longitude":"-73.9872329"}},"times":[{"day":"Mondays","startTime":"9:15 PM","endTime":"10:15 PM","type":"B"}]},{"name":"LEARNING TO LIVE (:I)","location":{"name":"Upright Citizens Brigade Theatre","address":"307 West 26th Street","meetingDetails":"All meetings are non-smoking.","state":"NY","zip":"10001","adaAccessible":false,"coordinate":{"latitude":"40.6427157","longitude":"-73.9524417"}},"times":[{"day":"Wednesdays","startTime":"12:00 PM","endTime":"1:00 PM","type":"S"},{"day":"Thursdays","startTime":"12:00 PM","endTime":"1:00 PM","type":"C"},{"day":"Fridays","startTime":"12:00 PM","endTime":"1:00 PM","type":"OD"},{"day":"Mondays","startTime":"12:00 PM","endTime":"1:00 PM","type":"B"},{"day":"Tuesdays","startTime":"12:00 PM","endTime":"1:00 PM","type":"BB"}]},{"name":"LUCKY ONES","location":{"name":"St. Paul's Episcopal Parish House","address":"405 West 59th Street","meetingDetails":"Room LL2","state":"NY","zip":"10019","adaAccessible":true,"coordinate":{"latitude":"40.6437878","longitude":"-73.920729"}},"times":[{"day":"Wednesdays","startTime":"1:00 PM","endTime":"2:00 PM","type":"BB"}]},{"name":"MIDNIGHT IN MIDTOWN","location":{"name":"","address":"303 West 42nd Street","meetingDetails":"T Last Sunday, Mon=Came To Believe, Last Sat. Open Anniversary Last Sat. meets at 252 West 46th Street","state":"NY","zip":"10036","adaAccessible":false,"coordinate":{"latitude":"40.7575385","longitude":"-73.9901368"}},"times":[{"day":"Sundays","startTime":"12:00 AM","endTime":"1:00 AM","type":"S"},{"day":"Mondays","startTime":"12:00 AM","endTime":"1:00 AM","type":"C"},{"day":"Tuesdays","startTime":"12:00 AM","endTime":"1:00 AM","type":"BB"},{"day":"Wednesdays","startTime":"12:00 AM","endTime":"1:00 AM","type":"C"},{"day":"Thursdays","startTime":"12:00 AM","endTime":"1:00 AM","type":"C"},{"day":"Fridays","startTime":"12:00 AM","endTime":"1:00 AM","type":"B"},{"day":"Saturdays","startTime":"12:00 AM","endTime":"1:00 AM","type":"O"}]},{"name":"MIRACLE","location":{"name":"Trinity Presbyterian Church ","address":"422 W. 57th St.","meetingDetails":"Open on Holidays.","state":"NY","zip":"10019","adaAccessible":true,"coordinate":{"latitude":"40.7682311","longitude":"-73.9868768"}},"times":[{"day":"Mondays","startTime":"7:00 PM","endTime":"8:00 PM","type":"B"}]},{"name":"MORNING CALL","location":{"name":"St. Mary the Virgin Church","address":"133 West 46th Street","meetingDetails":"","state":"NY","zip":"10036","adaAccessible":false,"coordinate":{"latitude":"40.6589343","longitude":"-73.9348705"}},"times":[{"day":"Thursdays","startTime":"6:00 AM","endTime":"7:00 AM","type":"B"},{"day":"Tuesdays","startTime":"6:00 AM","endTime":"7:00 AM","type":"S"}]},{"name":"NEW BUT WEST","location":{"name":"St. Mary the Virgin Church","address":"133 West 46th Street","meetingDetails":"Tue.Step=#'s 4-7, Wed.5:30=Grapevine Topic, Thu.12:30 Step=#'s 4-7 Thu.5:30=T last Thu.,Fri.BB=T last Fri. Fri.Step=#'s 8-12","state":"NY","zip":"10036","adaAccessible":false,"coordinate":{"latitude":"40.6589343","longitude":"-73.9348705"}},"times":[{"day":"Saturdays","startTime":"10:00 AM","endTime":"11:00 AM","type":"C"},{"day":"Mondays","startTime":"12:30 PM","endTime":"1:30 PM","type":"B"},{"day":"Mondays","startTime":"12:30 PM","endTime":"1:30 PM","type":"OD"},{"day":"Thursdays","startTime":"12:30 PM","endTime":"1:30 PM","type":"S"},{"day":"Mondays","startTime":"12:30 PM","endTime":"1:30 PM","type":"C"},{"day":"Thursdays","startTime":"12:30 PM","endTime":"1:30 PM","type":"S"},{"day":"Tuesdays","startTime":"12:30 PM","endTime":"1:30 PM","type":"B"},{"day":"Thursdays","startTime":"12:30 PM","endTime":"1:30 PM","type":"S"},{"day":"Tuesdays","startTime":"12:30 PM","endTime":"1:30 PM","type":"C"},{"day":"Tuesdays","startTime":"12:30 PM","endTime":"1:30 PM","type":"S"},{"day":"Fridays","startTime":"12:30 PM","endTime":"1:30 PM","type":"B"},{"day":"Fridays","startTime":"12:30 PM","endTime":"1:30 PM","type":"BB"},{"day":"Fridays","startTime":"12:30 PM","endTime":"1:30 PM","type":"S"},{"day":"Wednesdays","startTime":"12:30 PM","endTime":"1:30 PM","type":"B"},{"day":"Wednesdays","startTime":"12:30 PM","endTime":"1:30 PM","type":"OD"},{"day":"Wednesdays","startTime":"12:30 PM","endTime":"1:30 PM","type":"C"},{"day":"Sundays","startTime":"5:00 PM","endTime":"6:00 PM","type":"C"},{"day":"Wednesdays","startTime":"5:30 PM","endTime":"6:30 PM","type":"C"},{"day":"Mondays","startTime":"5:30 PM","endTime":"6:30 PM","type":"B"},{"day":"Thursdays","startTime":"5:30 PM","endTime":"6:30 PM","type":"S"},{"day":"Tuesdays","startTime":"5:30 PM","endTime":"6:30 PM","type":"BB"},{"day":"Fridays","startTime":"5:30 PM","endTime":"6:30 PM","type":"OD"}]},{"name":"NEW PHOENIX","location":{"name":"","address":"303 West 42nd Street","meetingDetails":"","state":"NY","zip":"10036","adaAccessible":false,"coordinate":{"latitude":"40.7575385","longitude":"-73.9901368"}},"times":[{"day":"Sundays","startTime":"10:30 AM","endTime":"11:30 AM","type":"C"},{"day":"Mondays","startTime":"10:30 AM","endTime":"11:30 AM","type":"C"},{"day":"Tuesdays","startTime":"10:30 AM","endTime":"11:30 AM","type":"C"},{"day":"Wednesdays","startTime":"10:30 AM","endTime":"11:30 AM","type":"C"},{"day":"Thursdays","startTime":"10:30 AM","endTime":"11:30 AM","type":"C"},{"day":"Fridays","startTime":"10:30 AM","endTime":"11:30 AM","type":"C"},{"day":"Saturdays","startTime":"10:30 AM","endTime":"11:30 AM","type":"C"}]},{"name":"NINTH AVENUE           (:I)","location":{"name":"Holy Apostles Church Rectory","address":"296 9th Avenue","meetingDetails":"Business meeting held on 1st Monday at 7:45pm LGBTQ Friendly.  All are welcome.","state":"NY","zip":"10001","adaAccessible":false,"coordinate":{"latitude":"40.7493539","longitude":"-73.998973"}},"times":[{"day":"Wednesdays","startTime":"6:15 PM","endTime":"7:15 PM","type":"C"},{"day":"Mondays","startTime":"6:15 PM","endTime":"7:15 PM","type":"B"},{"day":"Wednesdays","startTime":"7:30 PM","endTime":"8:45 PM","type":"S"},{"day":"Mondays","startTime":"7:45 PM","endTime":"8:45 PM","type":"C"},{"day":"Wednesdays","startTime":"9:00 PM","endTime":"10:00 PM","type":"B"},{"day":"Mondays","startTime":"9:00 PM","endTime":"10:00 PM","type":"O"}]},{"name":"NU GARDEN","location":{"name":"St. Francis of Assisi Center","address":"139 West 31st Street","meetingDetails":"All meetings are non-smoking.","state":"NY","zip":"10001","adaAccessible":false,"coordinate":{"latitude":"40.647412","longitude":"-73.9480599"}},"times":[{"day":"Sundays","startTime":"6:00 PM","endTime":"7:30 PM","type":"S"},{"day":"Thursdays","startTime":"6:00 PM","endTime":"7:30 PM","type":"OD"},{"day":"Saturdays","startTime":"6:00 PM","endTime":"7:30 PM","type":"OD"}]},{"name":"PARK BENCH   (:I)","location":{"name":"St. Thomas Church","address":"1 West 53rd Street","meetingDetails":"","state":"NY","zip":"10019","adaAccessible":true,"coordinate":{"latitude":"40.7602913","longitude":"-73.9752761"}},"times":[{"day":"Tuesdays","startTime":"12:30 PM","endTime":"1:30 PM","type":"OD"}]},{"name":"POWERLESS","location":{"name":"Manhattan Plaza Health Club","address":"484 West 43rd Street","meetingDetails":"Fri=Living Sober, Sat=Promises","state":"NY","zip":"10036","adaAccessible":true,"coordinate":{"latitude":"40.7599913","longitude":"-73.9948326"}},"times":[{"day":"Saturdays","startTime":"7:00 PM","endTime":"8:00 PM","type":"C"},{"day":"Mondays","startTime":"7:00 PM","endTime":"8:00 PM","type":"BB"},{"day":"Tuesdays","startTime":"7:00 PM","endTime":"8:00 PM","type":"S"},{"day":"Thursdays","startTime":"7:00 PM","endTime":"8:00 PM","type":"B"},{"day":"Fridays","startTime":"7:00 PM","endTime":"8:00 PM","type":"C"}]},{"name":"PROMISES","location":{"name":"Fifth Av Presbyterian Church","address":"7 West 55th Street","meetingDetails":"","state":"NY","zip":"10019","adaAccessible":true,"coordinate":{"latitude":"40.7618823","longitude":"-73.9751297"}},"times":[{"day":"Fridays","startTime":"12:30 PM","endTime":"1:30 PM","type":"OD"}]},{"name":"PROMISES","location":{"name":"46th Street Club House","address":"252 West 46th Street","meetingDetails":"","state":"NY","zip":"10036","adaAccessible":false,"coordinate":{"latitude":"40.7593831","longitude":"-73.9872329"}},"times":[{"day":"Thursdays","startTime":"9:15 PM","endTime":"10:15 PM","type":"S"}]},{"name":"RAINBOW ROOM","location":{"name":"46th Street Club House","address":"252 West 46th Street","meetingDetails":"Gay, Lesbian, Bisexual & Transgender Focus.  All are welcome. *Last Saturday of month=\"Open Anniversary\"","state":"NY","zip":"10036","adaAccessible":false,"coordinate":{"latitude":"40.7593831","longitude":"-73.9872329"}},"times":[{"day":"Saturdays","startTime":"5:30 PM","endTime":"6:30 PM","type":"C"},{"day":"Wednesdays","startTime":"5:30 PM","endTime":"6:30 PM","type":"C"},{"day":"Sundays","startTime":"5:30 PM","endTime":"6:30 PM","type":"S"},{"day":"Thursdays","startTime":"5:30 PM","endTime":"6:30 PM","type":"C"},{"day":"Mondays","startTime":"5:30 PM","endTime":"6:30 PM","type":"C"},{"day":"Fridays","startTime":"5:30 PM","endTime":"6:30 PM","type":"C"},{"day":"Tuesdays","startTime":"5:30 PM","endTime":"6:30 PM","type":"C"},{"day":"Saturdays","startTime":"6:45 PM","endTime":"7:45 PM","type":"B"},{"day":"Wednesdays","startTime":"6:45 PM","endTime":"7:45 PM","type":"OD"},{"day":"Sundays","startTime":"6:45 PM","endTime":"7:45 PM","type":"C"},{"day":"Mondays","startTime":"6:45 PM","endTime":"7:45 PM","type":"OD"},{"day":"Fridays","startTime":"6:45 PM","endTime":"7:45 PM","type":"OD"},{"day":"Tuesdays","startTime":"6:45 PM","endTime":"7:45 PM","type":"OD"},{"day":"Thursdays","startTime":"6:45 PM","endTime":"7:45 PM","type":"OD"},{"day":"Tuesdays","startTime":"8:00 PM","endTime":"9:00 PM","type":"BB"},{"day":"Saturdays","startTime":"8:00 PM","endTime":"9:00 PM","type":"O"},{"day":"Sundays","startTime":"8:00 PM","endTime":"9:00 PM","type":"BB"},{"day":"Thursdays","startTime":"8:00 PM","endTime":"9:00 PM","type":"O"},{"day":"Mondays","startTime":"8:00 PM","endTime":"9:00 PM","type":"O"},{"day":"Fridays","startTime":"8:00 PM","endTime":"9:00 PM","type":"S"},{"day":"Wednesdays","startTime":"8:00 PM","endTime":"9:00 PM","type":"C"}]},{"name":"RENAISSANCE","location":{"name":"The Learning Center","address":"4 West 43rd Street","meetingDetails":"","state":"NY","zip":"10017","adaAccessible":true,"coordinate":{"latitude":"40.7543885","longitude":"-73.9812083"}},"times":[{"day":"Mondays","startTime":"12:30 AM","endTime":"1:30 PM","type":"C"},{"day":"Tuesdays","startTime":"12:30 PM","endTime":"1:30 PM","type":"C"},{"day":"Wednesdays","startTime":"12:30 PM","endTime":"1:30 PM","type":"S"},{"day":"Thursdays","startTime":"12:30 PM","endTime":"1:30 PM","type":"B"},{"day":"Fridays","startTime":"12:30 PM","endTime":"1:30 PM","type":"C"}]},{"name":"SATURDAY ROTATING 12 STEP","location":{"name":"46th Street Club House","address":"252 West 46th Street","meetingDetails":"Rotating Step meeting.","state":"NY","zip":"10036","adaAccessible":false,"coordinate":{"latitude":"40.7593831","longitude":"-73.9872329"}},"times":[{"day":"Saturdays","startTime":"9:15 PM","endTime":"10:15 PM","type":"S"}]},{"name":"SPIRITUAL FRIDAYS","location":{"name":"Church of The Holy Apostles","address":"296 Ninth Avenue","meetingDetails":"Topic meeting, focus is on Spirituality","state":"NY","zip":"10001","adaAccessible":false,"coordinate":{"latitude":"40.6639307188879","longitude":"-73.9382749875207"}},"times":[{"day":"Fridays","startTime":"6:30 PM","endTime":"7:30 PM","type":"OD"}]},{"name":"ST. THOMAS A.M.","location":{"name":"St. Thomas Church Parish House","address":"1 West 53rd Street","meetingDetails":"Round Robin Meeting.","state":"NY","zip":"10019","adaAccessible":false,"coordinate":{"latitude":"40.7602913","longitude":"-73.9752761"}},"times":[{"day":"Tuesdays","startTime":"7:45 AM","endTime":"8:45 AM","type":"C"}]},{"name":"STATLER AT NOON","location":{"name":"St. John the Baptist Church","address":"210 West 31st Street","meetingDetails":"T Last Thursday; S other Thursdays All meetings are non-smoking.","state":"NY","zip":"10001","adaAccessible":false,"coordinate":{"latitude":"40.6560325","longitude":"-73.9999704"}},"times":[{"day":"Tuesdays","startTime":"12:00 PM","endTime":"1:00 PM","type":"C"},{"day":"Thursdays","startTime":"12:00 PM","endTime":"1:00 PM","type":"C"}]},{"name":"STEPS AND TRADITIONS ON WEDNESDAY","location":{"name":"Trinity Presbyterian Church","address":"422 West 57th Street","meetingDetails":"T-1st Wednesday","state":"NY","zip":"10019","adaAccessible":false,"coordinate":{"latitude":"40.7682311","longitude":"-73.9868768"}},"times":[{"day":"Wednesdays","startTime":"7:00 PM","endTime":"8:15 PM","type":"S"}]},{"name":"SUNDAY NIGHT BEGINNERS","location":{"name":"46th Street Club House","address":"252 West 46th Street","meetingDetails":"","state":"NY","zip":"10036","adaAccessible":false,"coordinate":{"latitude":"40.7593831","longitude":"-73.9872329"}},"times":[{"day":"Sundays","startTime":"9:15 PM","endTime":"10:15 PM","type":"B"}]},{"name":"TUESDAY SOBER AGNOSTICS","location":{"name":"","address":"134 West 29th Street - 2nd floor Studio 203","meetingDetails":"Agnostic- no prayer","state":"NY","zip":"10001","adaAccessible":true,"coordinate":{"latitude":"40.7472463","longitude":"-73.9917061"}},"times":[{"day":"Tuesdays","startTime":"6:00 PM","endTime":"7:00 PM","type":"OD"}]},{"name":"WEST 58th STREET STEP","location":{"name":"Mount Sinai - Roosevelt Hospital","address":"1000 Tenth Avenue","meetingDetails":"","state":"NY","zip":"10019","adaAccessible":true,"coordinate":{"latitude":"40.6639307188879","longitude":"-73.9382749875207"}},"times":[{"day":"Fridays","startTime":"7:30 PM","endTime":"8:30 PM","type":"S"}]},{"name":"WOMEN OVER FORTY","location":{"name":"GMHC","address":"446 West 33rd Street","meetingDetails":"S 1st, C 2nd, BB 3rd, O Anniversary Meeting 4th Friday Women's Meeting.","state":"NY","zip":"10001","adaAccessible":true,"coordinate":{"latitude":"40.753496","longitude":"-73.9989428"}},"times":[{"day":"Fridays","startTime":"6:30 PM","endTime":"7:45 PM","type":"C"}]},{"name":"YOUNG IN 164","location":{"name":"St. Clements Church","address":"423 West 46th Street","meetingDetails":"","state":"NY","zip":"10036","adaAccessible":true,"coordinate":{"latitude":"40.7614721","longitude":"-73.9916406"}},"times":[{"day":"Sundays","startTime":"7:30 PM","endTime":"8:30 PM","type":"BB"}]},{"name":"YOUNG PEOPLE'S MEETING","location":{"name":"46th Street Club House","address":"252 West 46th Street","meetingDetails":"Young People BB Meeting","state":"NY","zip":"10036","adaAccessible":false,"coordinate":{"latitude":"40.7593831","longitude":"-73.9872329"}},"times":[{"day":"Fridays","startTime":"9:15 PM","endTime":"10:15 PM","type":"BB"}]},{"name":"AA LITERATURE","location":{"name":"","address":"122 East 37th Street","meetingDetails":"FRONT BASEMENT ONLY","state":"NY","zip":"10016","adaAccessible":false,"coordinate":{"latitude":"40.7483929","longitude":"-73.9787906"}},"times":[{"day":"Sundays","startTime":"6:15 PM","endTime":"7:15 PM","type":"C"}]},{"name":"BREAKFAST CLUB","location":{"name":"","address":"30 East 35th Street","meetingDetails":"All meetings are Round Robin format except Thursday. Tue=Alternating Step/Trad.","state":"NY","zip":"10016","adaAccessible":false,"coordinate":{"latitude":"40.7479892","longitude":"-73.9817564"}},"times":[{"day":"Tuesdays","startTime":"7:30 AM","endTime":"8:30 AM","type":"S"},{"day":"Wednesdays","startTime":"7:30 AM","endTime":"8:30 AM","type":"OD"},{"day":"Thursdays","startTime":"7:30 AM","endTime":"8:30 AM","type":"O"},{"day":"Fridays","startTime":"7:30 AM","endTime":"8:30 AM","type":"OD"},{"day":"Mondays","startTime":"7:30 AM","endTime":"8:30 AM","type":"OD"}]},{"name":"CARLYLE","location":{"name":"Cathedral High School","address":"350 East 56th Street","meetingDetails":"3rd Floor library","state":"NY","zip":"10022","adaAccessible":false,"coordinate":{"latitude":"40.757654","longitude":"-73.963834"}},"times":[{"day":"Mondays","startTime":"5:45 PM","endTime":"6:45 PM","type":"B"},{"day":"Wednesdays","startTime":"5:45 PM","endTime":"6:45 PM","type":"B"}]},{"name":"CITY GROUP","location":{"name":"St. Peter's Lutheran Church @ Citicorp Center","address":"619 Lexington Avenue","meetingDetails":"T -7:30am last Mon., Anniv -12:30 Last Thursday","state":"NY","zip":"10022","adaAccessible":false,"coordinate":{"latitude":"40.6894374","longitude":"-73.9367705"}},"times":[{"day":"Thursdays","startTime":"7:30 AM","endTime":"8:30 AM","type":"OD"},{"day":"Mondays","startTime":"7:30 AM","endTime":"8:30 AM","type":"S"},{"day":"Wednesdays","startTime":"7:30 AM","endTime":"8:30 AM","type":"OD"},{"day":"Fridays","startTime":"7:45 AM","endTime":"8:45 AM","type":"B"},{"day":"Mondays","startTime":"12:30 PM","endTime":"1:30 PM","type":"B"},{"day":"Mondays","startTime":"12:30 PM","endTime":"1:30 PM","type":"S"},{"day":"Tuesdays","startTime":"12:30 PM","endTime":"1:30 PM","type":"B"},{"day":"Thursdays","startTime":"12:30 PM","endTime":"1:30 PM","type":"O"},{"day":"Wednesdays","startTime":"12:30 PM","endTime":"1:30 PM","type":"B"},{"day":"Wednesdays","startTime":"12:30 PM","endTime":"1:30 PM","type":"S"},{"day":"Thursdays","startTime":"12:30 PM","endTime":"1:30 PM","type":"B"},{"day":"Fridays","startTime":"12:30 PM","endTime":"1:30 PM","type":"B"},{"day":"Fridays","startTime":"12:30 PM","endTime":"1:30 PM","type":"BB"},{"day":"Tuesdays","startTime":"12:30 PM","endTime":"1:30 PM","type":"S"}]},{"name":"COURAGE TO CHANGE","location":{"name":"","address":"122 East 37th Street","meetingDetails":"Wed.6:15 BB=OD Big Book Study Fri.7:30pm=Anniv. Meeting every Fri.","state":"NY","zip":"10016","adaAccessible":false,"coordinate":{"latitude":"40.7483929","longitude":"-73.9787906"}},"times":[{"day":"Sundays","startTime":"12:45 PM","endTime":"1:45 PM","type":"S"},{"day":"Sundays","startTime":"6:15 PM","endTime":"7:15 PM","type":"B"},{"day":"Sundays","startTime":"6:15 PM","endTime":"7:15 PM","type":"C"},{"day":"Mondays","startTime":"6:15 PM","endTime":"7:15 PM","type":"B"},{"day":"Tuesdays","startTime":"6:15 PM","endTime":"7:15 PM","type":"B"},{"day":"Tuesdays","startTime":"6:15 PM","endTime":"7:15 PM","type":"S"},{"day":"Wednesdays","startTime":"6:15 PM","endTime":"7:15 PM","type":"BB"},{"day":"Wednesdays","startTime":"6:15 PM","endTime":"7:15 PM","type":"C"},{"day":"Thursdays","startTime":"6:15 PM","endTime":"7:15 PM","type":"C"},{"day":"Fridays","startTime":"6:15 PM","endTime":"7:15 PM","type":"B"},{"day":"Fridays","startTime":"7:30 PM","endTime":"8:30 PM","type":"OD"}]},{"name":"EMPIRE STATE","location":{"name":"J.H. Holmes Community House","address":"28 East 35th Street","meetingDetails":"T Last Wednesday","state":"NY","zip":"10016","adaAccessible":false,"coordinate":{"latitude":"40.748023","longitude":"-73.9818371"}},"times":[{"day":"Mondays","startTime":"12:15 PM","endTime":"1:15 PM","type":"C"},{"day":"Wednesdays","startTime":"12:15 PM","endTime":"1:15 PM","type":"S"},{"day":"Fridays","startTime":"12:15 PM","endTime":"1:15 PM","type":"B"}]},{"name":"GOTHAM","location":{"name":"Cathedral High School ","address":"350 East 56th Street ","meetingDetails":"Beginners Meeting 2nd & 4th Sunday Step Meeting 1st &3rd Sunday","state":"NY","zip":"10022","adaAccessible":false,"coordinate":{"latitude":"40.757654","longitude":"-73.963834"}},"times":[{"day":"Sundays","startTime":"5:30 PM","endTime":"6:30 PM","type":"B"},{"day":"Sundays","startTime":"5:30 PM","endTime":"6:30 PM","type":"S"},{"day":"Tuesdays","startTime":"5:45 PM","endTime":"6:45 PM","type":"OD"}]},{"name":"GRAND CENTRAL","location":{"name":"Soldiers, Sailors, Marines &amp; Airmen's Club","address":"283 Lexington Avenue","meetingDetails":"T=Last Tuesday, Fri=Anniv. 2nd to Last Friday. All meetings are non-smoking.","state":"NY","zip":"10016","adaAccessible":false,"coordinate":{"latitude":"40.7479969","longitude":"-73.9783809"}},"times":[{"day":"Mondays","startTime":"5:30 PM","endTime":"6:30 PM","type":"B"},{"day":"Tuesdays","startTime":"5:30 PM","endTime":"6:30 PM","type":"S"},{"day":"Fridays","startTime":"5:30 PM","endTime":"6:30 PM","type":"C"},{"day":"Wednesdays","startTime":"5:30 PM","endTime":"6:30 PM","type":"BB"},{"day":"Thursdays","startTime":"5:30 PM","endTime":"6:30 PM","type":"OD"}]},{"name":"GRUPO BRASIL","location":{"name":"","address":"122 East 37th Street","meetingDetails":"Portugese speaking meeting.","state":"NY","zip":"10016","adaAccessible":false,"coordinate":{"latitude":"40.7483929","longitude":"-73.9787906"}},"times":[{"day":"Wednesdays","startTime":"8:00 PM","endTime":"9:00 PM","type":"S"},{"day":"Fridays","startTime":"8:00 PM","endTime":"9:00 PM","type":"OD"}]},{"name":"LIFE LINE","location":{"name":"St. Peter's Lutheran Church @ CitiCorp Center","address":"619 Lexington Avenue","meetingDetails":"All meetings are non-smoking.","state":"NY","zip":"10022","adaAccessible":true,"coordinate":{"latitude":"40.6894374","longitude":"-73.9367705"}},"times":[{"day":"Mondays","startTime":"5:30 PM","endTime":"6:30 PM","type":"B"},{"day":"Fridays","startTime":"5:30 PM","endTime":"6:30 PM","type":"OD"}]},{"name":"LUNCH BUNCH","location":{"name":"Saint Agnes Church","address":"141 East 43rd Street","meetingDetails":"Enter main Church entrance, turn left, meeting is downstairs. T 3rd Wed. Open Anniv. or Open Disc. Meeting last Fri.","state":"NY","zip":"10017","adaAccessible":true,"coordinate":{"latitude":"40.7518754","longitude":"-73.9747248"}},"times":[{"day":"Mondays","startTime":"12:30 PM","endTime":"1:30 PM","type":"B"},{"day":"Tuesdays","startTime":"12:30 PM","endTime":"1:30 PM","type":"C"},{"day":"Wednesdays","startTime":"12:30 PM","endTime":"1:30 PM","type":"S"},{"day":"Thursdays","startTime":"12:30 PM","endTime":"1:30 PM","type":"C"},{"day":"Fridays","startTime":"12:30 PM","endTime":"1:30 PM","type":"B"}]},{"name":"LUNCHTIME EXPRESS AT THE MUSTARD SEED","location":{"name":"MUSTARD SEED","address":"122 E 37TH St.","meetingDetails":"","state":"NY","zip":"10016","adaAccessible":false,"coordinate":{"latitude":"40.7483929","longitude":"-73.9787906"}},"times":[{"day":"Wednesdays","startTime":"12:30 PM","endTime":"1:15 PM","type":"O"}]},{"name":"MEDITATION SATURDAY NIGHT","location":{"name":"Mustard Seed","address":"122 East 37th Street","meetingDetails":"11th S Meditation ENT BASEMENT ONLY","state":"NY","zip":"10016","adaAccessible":false,"coordinate":{"latitude":"40.7483929","longitude":"-73.9787906"}},"times":[{"day":"Saturdays","startTime":"7:30 PM","endTime":"8:30 PM","type":"Eleventh"}]},{"name":"MONDAY MEN","location":{"name":"St. Agnes Church","address":"141 East 43rd Street","meetingDetails":"","state":"NY","zip":"10017","adaAccessible":false,"coordinate":{"latitude":"40.7518754","longitude":"-73.9747248"}},"times":[{"day":"Mondays","startTime":"6:15 PM","endTime":"7:15 PM","type":"B"},{"day":"Thursdays","startTime":"6:15 PM","endTime":"7:15 PM","type":"S"},{"day":"Mondays","startTime":"7:15 PM","endTime":"8:15 PM","type":"C"}]},{"name":"MURRAY HILL","location":{"name":"Church of the Incarnation","address":"209 Madison Avenue","meetingDetails":"No Meetings on Legal Holidays.","state":"NY","zip":"10016","adaAccessible":false,"coordinate":{"latitude":"40.7486487","longitude":"-73.9821254"}},"times":[{"day":"Mondays","startTime":"6:15 PM","endTime":"7:15 PM","type":"B"}]},{"name":"MUSTARD SEED","location":{"name":"","address":"122 East 37th Street","meetingDetails":"Sun.7:30am,Tue.6:15pm B & Wed.6:15pm C =Meditation Wkshp., Sun.9:30am Step=Back to Basics, Fri.7:30pm=Anniv.every Fri. Thurs. 8am back room, Gratitude","state":"NY","zip":"10016","adaAccessible":false,"coordinate":{"latitude":"40.7483929","longitude":"-73.9787906"}},"times":[{"day":"Tuesdays","startTime":"6:15 AM","endTime":"7:15 AM","type":"BB"},{"day":"Thursdays","startTime":"7:30 AM","endTime":"8:30 AM","type":"C"},{"day":"Wednesdays","startTime":"7:30 AM","endTime":"8:30 AM","type":"C"},{"day":"Thursdays","startTime":"7:30 AM","endTime":"8:30 AM","type":"C"},{"day":"Wednesdays","startTime":"7:30 AM","endTime":"8:30 AM","type":"C"},{"day":"Tuesdays","startTime":"7:30 AM","endTime":"8:30 AM","type":"C"},{"day":"Mondays","startTime":"7:30 AM","endTime":"8:30 AM","type":"C"},{"day":"Tuesdays","startTime":"7:30 AM","endTime":"8:30 AM","type":"C"},{"day":"Sundays","startTime":"7:30 AM","endTime":"8:30 AM","type":"C"},{"day":"Mondays","startTime":"7:30 AM","endTime":"8:30 AM","type":"C"},{"day":"Fridays","startTime":"7:30 AM","endTime":"8:30 AM","type":"C"},{"day":"Thursdays","startTime":"7:30 AM","endTime":"8:30 AM","type":"C"},{"day":"Saturdays","startTime":"8:00 AM","endTime":"9:00 AM","type":"C"},{"day":"Saturdays","startTime":"8:00 AM","endTime":"9:00 AM","type":"C"},{"day":"Thursdays","startTime":"8:00 AM","endTime":"9:00 AM","type":"C"},{"day":"Sundays","startTime":"8:15 AM","endTime":"9:15 AM","type":"C"},{"day":"Thursdays","startTime":"9:30 AM","endTime":"10:30 AM","type":"C"},{"day":"Wednesdays","startTime":"9:30 AM","endTime":"10:30 AM","type":"C"},{"day":"Tuesdays","startTime":"9:30 AM","endTime":"10:30 AM","type":"C"},{"day":"Mondays","startTime":"9:30 AM","endTime":"10:30 AM","type":"C"},{"day":"Sundays","startTime":"9:30 AM","endTime":"10:30 AM","type":"C"},{"day":"Sundays","startTime":"9:30 AM","endTime":"10:30 AM","type":"S"},{"day":"Saturdays","startTime":"9:30 AM","endTime":"10:30 AM","type":"C"},{"day":"Fridays","startTime":"9:30 AM","endTime":"10:30 AM","type":"C"},{"day":"Saturdays","startTime":"10:00 AM","endTime":"11:00 AM","type":"BB"},{"day":"Sundays","startTime":"11:00 AM","endTime":"12:00 PM","type":"BB"},{"day":"Fridays","startTime":"11:30 AM","endTime":"12:30 PM","type":"C"},{"day":"Thursdays","startTime":"11:30 AM","endTime":"12:30 PM","type":"C"},{"day":"Wednesdays","startTime":"11:30 AM","endTime":"12:30 PM","type":"C"},{"day":"Tuesdays","startTime":"11:30 AM","endTime":"12:30 PM","type":"C"},{"day":"Mondays","startTime":"11:30 AM","endTime":"12:30 PM","type":"C"},{"day":"Saturdays","startTime":"12:45 PM","endTime":"1:45 PM","type":"C"},{"day":"Fridays","startTime":"12:45 PM","endTime":"1:45 PM","type":"C"},{"day":"Thursdays","startTime":"12:45 PM","endTime":"1:45 PM","type":"C"},{"day":"Wednesdays","startTime":"12:45 PM","endTime":"1:45 PM","type":"C"},{"day":"Tuesdays","startTime":"12:45 PM","endTime":"1:45 PM","type":"C"},{"day":"Mondays","startTime":"12:45 PM","endTime":"1:45 PM","type":"C"},{"day":"Sundays","startTime":"12:45 PM","endTime":"1:45 PM","type":"S"},{"day":"Sundays","startTime":"3:00 PM","endTime":"4:00 PM","type":"C"},{"day":"Fridays","startTime":"3:15 PM","endTime":"4:15 PM","type":"C"},{"day":"Thursdays","startTime":"3:15 PM","endTime":"4:15 PM","type":"C"},{"day":"Wednesdays","startTime":"3:15 PM","endTime":"4:15 PM","type":"C"},{"day":"Tuesdays","startTime":"3:15 PM","endTime":"4:15 PM","type":"C"},{"day":"Mondays","startTime":"3:15 PM","endTime":"4:15 PM","type":"C"},{"day":"Saturdays","startTime":"5:30 PM","endTime":"6:30 PM","type":"B"},{"day":"Sundays","startTime":"6:15 PM","endTime":"7:00 PM","type":"B"},{"day":"Fridays","startTime":"6:15 PM","endTime":"7:15 PM","type":"B"},{"day":"Thursdays","startTime":"6:15 PM","endTime":"7:15 PM","type":"C"},{"day":"Wednesdays","startTime":"6:15 PM","endTime":"7:15 PM","type":"C"},{"day":"Tuesdays","startTime":"6:15 PM","endTime":"7:15 PM","type":"B"},{"day":"Wednesdays","startTime":"6:15 PM","endTime":"7:15 PM","type":"BB"},{"day":"Mondays","startTime":"6:15 PM","endTime":"7:15 PM","type":"B"},{"day":"Tuesdays","startTime":"6:15 PM","endTime":"7:15 PM","type":"S"},{"day":"Fridays","startTime":"7:30 PM","endTime":"8:30 PM","type":"OD"},{"day":"Saturdays","startTime":"7:30 PM","endTime":"8:30 PM","type":"Meditation\n\t\t\t"},{"day":"Tuesdays","startTime":"8:00 PM","endTime":"9:00 PM","type":"C"},{"day":"Sundays","startTime":"8:00 PM","endTime":"9:00 PM","type":"B"},{"day":"Thursdays","startTime":"8:00 PM","endTime":"9:00 PM","type":"C"},{"day":"Wednesdays","startTime":"8:00 PM","endTime":"9:00 PM","type":"S"},{"day":"Mondays","startTime":"8:00 PM","endTime":"9:00 PM","type":"B"},{"day":"Fridays","startTime":"10:00 PM","endTime":"11:00 PM","type":"OD"}]},{"name":"REBELLION DOGS","location":{"name":"St. Peter's Lutheran Church @ CitiCorp Center","address":"619 Lexington Avenue","meetingDetails":"Living Sober","state":"NY","zip":"10022","adaAccessible":true,"coordinate":{"latitude":"40.6894374","longitude":"-73.9367705"}},"times":[{"day":"Tuesdays","startTime":"7:30 AM","endTime":"8:30 AM","type":"C"}]},{"name":"SATURDAY EAST","location":{"name":"Church of the Good Shepherd","address":"240 East 31st Street","meetingDetails":"Focus is on members under 60 days.  All are welcome. Anniversaries last week of month","state":"NY","zip":"10016","adaAccessible":true,"coordinate":{"latitude":"40.7430963","longitude":"-73.9780494"}},"times":[{"day":"Saturdays","startTime":"4:00 PM","endTime":"5:00 PM","type":"C"}]},{"name":"SATURDAY STEP","location":{"name":"The New York New Church","address":"114 East 35th Street","meetingDetails":"","state":"NY","zip":"10016","adaAccessible":true,"coordinate":{"latitude":"40.7473169","longitude":"-73.9800724"}},"times":[{"day":"Saturdays","startTime":"10:00 AM","endTime":"11:00 AM","type":"S"}]},{"name":"SERENITY EAST","location":{"name":"ALL SAINTS CHURCH","address":"230 East 60th Street (Basement) ","meetingDetails":"Fri.6:30=Steps 3 & 11","state":"NY","zip":"10022","adaAccessible":false,"coordinate":{"latitude":"40.7615607","longitude":"-73.9649474"}},"times":[{"day":"Tuesdays","startTime":"7:30 AM","endTime":"8:30 AM","type":"BB"},{"day":"Fridays","startTime":"6:30 PM","endTime":"7:30 PM","type":"S"},{"day":"Fridays","startTime":"8:00 PM","endTime":"9:00 PM","type":"B"}]},{"name":"SERENITY EAST (:I)","location":{"name":"Caron Foundation","address":"244 East 58th Street","meetingDetails":"","state":"NY","zip":"10022","adaAccessible":true,"coordinate":{"latitude":"40.7600925","longitude":"-73.9653811"}},"times":[{"day":"Tuesdays","startTime":"5:30 PM","endTime":"6:30 PM","type":"BB"}]},{"name":"SILKWORTH WOMEN'S","location":{"name":"St. Peter's Lutheran Church @ CitiCorp Center","address":"619 Lexington Avenue","meetingDetails":"Women's Meeting.","state":"NY","zip":"10022","adaAccessible":true,"coordinate":{"latitude":"40.6894374","longitude":"-73.9367705"}},"times":[{"day":"Thursdays","startTime":"12:30 PM","endTime":"1:30 PM","type":"C"}]},{"name":"ST. BART'S TWELVE","location":{"name":"St. Bartholomew's Church","address":"325 Park Avenue","meetingDetails":"Anniv. Last Mon., T-Last Wed., Topic-Last Fri. All meetings are OPEN to Public NOTE: Monday & Wednesday in Choir Room. Friday in Vestry Room. Also check the Board at Church entrance.","state":"NY","zip":"10022","adaAccessible":false,"coordinate":{"latitude":"40.6639307188879","longitude":"-73.9382749875207"}},"times":[{"day":"Fridays","startTime":"12:30 PM","endTime":"1:30 PM","type":"BB"},{"day":"Mondays","startTime":"12:30 PM","endTime":"1:30 PM","type":"C"},{"day":"Wednesdays","startTime":"12:30 PM","endTime":"1:30 PM","type":"S"}]},{"name":"STRAIGHT 12","location":{"name":"CHURCH OF THE GOOD SHEPARD","address":"236 EAST 31st STREET ","meetingDetails":"","state":"NY","zip":"10016","adaAccessible":false,"coordinate":{"latitude":"40.6448323","longitude":"-73.9481079"}},"times":[{"day":"Saturdays","startTime":"6:00 PM","endTime":"7:00 PM","type":"C"},{"day":"Saturdays","startTime":"7:15 PM","endTime":"8:15 PM","type":"B"},{"day":"Saturdays","startTime":"8:30 PM","endTime":"9:30 PM","type":"OD"}]},{"name":"TEMPLETON","location":{"name":"Conservative Synagogue","address":"308 East 55th Street","meetingDetails":"","state":"NY","zip":"10022","adaAccessible":false,"coordinate":{"latitude":"40.6501686","longitude":"-73.9254937"}},"times":[{"day":"Wednesdays","startTime":"6:15 PM","endTime":"7:15 PM","type":"OD"}]},{"name":"TRAFALGAR","location":{"name":"The Caron Foundation","address":"244 East 58th Street","meetingDetails":"","state":"NY","zip":"10022","adaAccessible":true,"coordinate":{"latitude":"40.6492925","longitude":"-73.9225408"}},"times":[{"day":"Tuesdays","startTime":"6:45 PM","endTime":"7:45 PM","type":"OD"}]},{"name":"TUDOR","location":{"name":"Caron Foundation","address":"244 East 58th Street","meetingDetails":"","state":"NY","zip":"10022","adaAccessible":true,"coordinate":{"latitude":"40.7600925","longitude":"-73.9653811"}},"times":[{"day":"Thursdays","startTime":"6:15 PM","endTime":"7:15 PM","type":"OD"}]},{"name":"WOMEN'S ELEVENTH STEP","location":{"name":"","address":"109 East 50th Street","meetingDetails":"11th Step, Anniv. 3rd Wednesday No Smoking","state":"NY","zip":"10022","adaAccessible":true,"coordinate":{"latitude":"40.7569178","longitude":"-73.97309"}},"times":[{"day":"Wednesdays","startTime":"5:45 PM","endTime":"7:15 PM","type":"S"}]},{"name":"A NEW DAY","location":{"name":"Holy Name Church","address":"207 West 96th Street","meetingDetails":"Mon=As Bill Sees It, Wed=Living Sober","state":"NY","zip":"10025","adaAccessible":false,"coordinate":{"latitude":"40.7945161","longitude":"-73.9710419"}},"times":[{"day":"Mondays","startTime":"3:00 PM","endTime":"4:00 PM","type":"C"},{"day":"Wednesdays","startTime":"3:00 PM","endTime":"4:00 PM","type":"C"}]},{"name":"A VISION FOR YOU","location":{"name":"Christ &amp; St. Stephen's Church","address":"120 West 69th Street","meetingDetails":"","state":"NY","zip":"10023","adaAccessible":false,"coordinate":{"latitude":"40.7756982","longitude":"-73.9810333"}},"times":[{"day":"Fridays","startTime":"7:45 PM","endTime":"8:45 PM","type":"OD"},{"day":"Fridays","startTime":"9:00 PM","endTime":"10:00 PM","type":"BB"}]},{"name":"AFTER EIGHT (:i)","location":{"name":"Trinity Presbyterian Church","address":"422 West 57th Street","meetingDetails":"Tues= AA Literature/Topic meeting The group's focus is on long-term sobriety; but all A.A. members are welcome.","state":"NY","zip":"10023","adaAccessible":false,"coordinate":{"latitude":"40.7682311","longitude":"-73.9868768"}},"times":[{"day":"Tuesdays","startTime":"6:30 PM","endTime":"7:45 PM","type":"C"}]},{"name":"AFTER EIGHT (:ii)","location":{"name":"Phoenix House","address":"164 West 74th Street","meetingDetails":"","state":"NY","zip":"10023","adaAccessible":true,"coordinate":{"latitude":"40.7713256","longitude":"-73.9605766"}},"times":[{"day":"Thursdays","startTime":"6:30 PM","endTime":"7:30 PM","type":"C"}]},{"name":"ALTERED ATTITUDES","location":{"name":"Holy Name Church","address":"207 West 96th Street","meetingDetails":"","state":"NY","zip":"10025","adaAccessible":false,"coordinate":{"latitude":"40.7945161","longitude":"-73.9710419"}},"times":[{"day":"Fridays","startTime":"9:30 PM","endTime":"10:30 PM","type":"OD"}]},{"name":"AMSTERDAM","location":{"name":"St. Gregory's Church","address":"144 West 90th Street","meetingDetails":"T - Last Friday, Anniversary-Last Saturday.","state":"NY","zip":"10024","adaAccessible":false,"coordinate":{"latitude":"40.7898068","longitude":"-73.9723737"}},"times":[{"day":"Saturdays","startTime":"1:00 PM","endTime":"2:30 PM","type":"B"},{"day":"Saturdays","startTime":"2:30 PM","endTime":"4:00 PM","type":"O"},{"day":"Mondays","startTime":"4:00 PM","endTime":"5:30 PM","type":"BB"},{"day":"Tuesdays","startTime":"4:00 PM","endTime":"5:30 PM","type":"OD"},{"day":"Wednesdays","startTime":"4:00 PM","endTime":"5:30 PM","type":"O"},{"day":"Fridays","startTime":"4:00 PM","endTime":"5:30 PM","type":"S"}]},{"name":"ANSONIA","location":{"name":"Hamilton House","address":"141 West 73rd Street","meetingDetails":"Anniv. Meeting last Monday.","state":"NY","zip":"10023","adaAccessible":true,"coordinate":{"latitude":"40.7789036","longitude":"-73.9799533"}},"times":[{"day":"Mondays","startTime":"7:00 PM","endTime":"8:00 PM","type":"C"}]},{"name":"ATLANTIC WEST STEP &amp; TRADITION","location":{"name":"Fourth Universalist Church","address":"4 West 76th Street. Meeting in the gym.","meetingDetails":"Alternating Step and Tradition meeting.","state":"NY","zip":"10023","adaAccessible":false,"coordinate":{"latitude":"40.7788736","longitude":"-73.9745891"}},"times":[{"day":"Fridays","startTime":"7:00 PM","endTime":"8:00 PM","type":"S"}]},{"name":"BLOOMINGDALE","location":{"name":"Church of the Ascension","address":"221 West 107th Street","meetingDetails":"All Meetings Are Non-Smoking. Anniversary meeting last Tues at 6:15","state":"NY","zip":"10025","adaAccessible":false,"coordinate":{"latitude":"40.8017795","longitude":"-73.9665393"}},"times":[{"day":"Tuesdays","startTime":"6:15 PM","endTime":"7:15 PM","type":"S"},{"day":"Tuesdays","startTime":"7:30 PM","endTime":"8:30 PM","type":"B"}]},{"name":"BROADWAY AT 96TH","location":{"name":"Holy Name Church","address":"207 West 96th Street","meetingDetails":"","state":"NY","zip":"10025","adaAccessible":false,"coordinate":{"latitude":"40.7945161","longitude":"-73.9710419"}},"times":[{"day":"Mondays","startTime":"7:30 PM","endTime":"8:30 PM","type":"BB"},{"day":"Fridays","startTime":"7:30 PM","endTime":"8:30 PM","type":"O"}]},{"name":"CADILLACS FOR EVERYONE","location":{"name":"Holy Trinity Rectory","address":"215 West 82nd Street","meetingDetails":"Men's Meeting","state":"NY","zip":"10024","adaAccessible":true,"coordinate":{"latitude":"40.7853848470569","longitude":"-73.9773499149036"}},"times":[{"day":"Thursdays","startTime":"7:00 PM","endTime":"8:00 PM","type":"OD"}]},{"name":"CAMPUS CHEER","location":{"name":"Broadway Presbyterian Church","address":"601 West 114th Street","meetingDetails":"","state":"NY","zip":"10025","adaAccessible":false,"coordinate":{"latitude":"40.8069051","longitude":"-73.965058"}},"times":[{"day":"Tuesdays","startTime":"12:30 PM","endTime":"1:30 PM","type":"C"},{"day":"Thursdays","startTime":"12:30 PM","endTime":"1:30 PM","type":"C"}]},{"name":"CENTRAL PARK WEST","location":{"name":"Universalist Church","address":"Central Park West & 76th Street - basement gymnasium","meetingDetails":"T Last Thursday","state":"NY","zip":"10023","adaAccessible":false,"coordinate":{"latitude":"40.6639307188879","longitude":"-73.9382749875207"}},"times":[{"day":"Tuesdays","startTime":"8:15 PM","endTime":"9:30 PM","type":"C"}]},{"name":"CHELSEA RIVERSIDE","location":{"name":"West Side YMCA at 63rd Street","address":"5 West 63rd Street","meetingDetails":"10:15pm = Topic Meeting","state":"NY","zip":"10023","adaAccessible":true,"coordinate":{"latitude":"40.7708644","longitude":"-73.9806413"}},"times":[{"day":"Mondays","startTime":"7:30 PM","endTime":"8:45 PM","type":"O"},{"day":"Mondays","startTime":"9:00 PM","endTime":"10:00 PM","type":"B"},{"day":"Mondays","startTime":"10:15 PM","endTime":"11:15 PM","type":"C"}]},{"name":"CHOCK FULL OF SOBRIETY","location":{"name":"Universalist Church","address":"4 West 76th Street","meetingDetails":"S 1st & T Last Friday","state":"NY","zip":"10023","adaAccessible":false,"coordinate":{"latitude":"40.7788736","longitude":"-73.9745891"}},"times":[{"day":"Fridays","startTime":"6:30 PM","endTime":"7:30 PM","type":"C"}]},{"name":"CLASSEN HALL     (:II)","location":{"name":"Fourth Universalist Society","address":"160 Central Park West","meetingDetails":"","state":"NY","zip":"10023","adaAccessible":false,"coordinate":{"latitude":"40.7787712","longitude":"-73.9743066"}},"times":[{"day":"Sundays","startTime":"6:00 PM","endTime":"7:00 PM","type":"B"}]},{"name":"CLASSEN HALL STEP MEETING  ( :I )","location":{"name":"Good Shepherd Faith Church","address":"152 West 66th Street","meetingDetails":"Enter basement level @ red door on left side of the building.","state":"NY","zip":"10023","adaAccessible":false,"coordinate":{"latitude":"40.7744405","longitude":"-73.9838262"}},"times":[{"day":"Sundays","startTime":"6:15 PM","endTime":"7:45 PM","type":"S"}]},{"name":"COLUMBUS AT FIVE","location":{"name":"Second Presbyterian Church","address":"3 West 95th Street","meetingDetails":"Children are welcome at all meetings. All meetings are non-smoking.","state":"NY","zip":"10025","adaAccessible":false,"coordinate":{"latitude":"40.7870573","longitude":"-73.955612"}},"times":[{"day":"Saturdays","startTime":"5:00 PM","endTime":"6:00 PM","type":"C"},{"day":"Sundays","startTime":"5:00 PM","endTime":"6:00 PM","type":"C"},{"day":"Fridays","startTime":"7:00 PM","endTime":"8:00 PM","type":"C"}]},{"name":"EIGHTIETH STREET BEGINNERS","location":{"name":"All Angels Church","address":"251 West 80th Street","meetingDetails":"","state":"NY","zip":"10024","adaAccessible":true,"coordinate":{"latitude":"40.7848713","longitude":"-73.9800524"}},"times":[{"day":"Fridays","startTime":"7:30 PM","endTime":"8:45 PM","type":"C"}]},{"name":"FAST BREAK","location":{"name":"Hargrave House","address":"111 West 71st Street","meetingDetails":"","state":"NY","zip":"10023","adaAccessible":false,"coordinate":{"latitude":"40.7703257","longitude":"-73.9638346"}},"times":[{"day":"Fridays","startTime":"7:00 AM","endTime":"8:00 AM","type":"C"},{"day":"Mondays","startTime":"7:00 AM","endTime":"8:00 AM","type":"C"},{"day":"Tuesdays","startTime":"7:00 AM","endTime":"8:00 AM","type":"C"},{"day":"Wednesdays","startTime":"7:00 AM","endTime":"8:00 AM","type":"C"},{"day":"Thursdays","startTime":"7:00 AM","endTime":"8:00 AM","type":"S"},{"day":"Fridays","startTime":"8:15 AM","endTime":"9:15 AM","type":"C"},{"day":"Mondays","startTime":"8:15 AM","endTime":"9:15 AM","type":"C"},{"day":"Tuesdays","startTime":"8:15 AM","endTime":"9:15 AM","type":"C"},{"day":"Wednesdays","startTime":"8:15 AM","endTime":"9:15 AM","type":"C"},{"day":"Thursdays","startTime":"8:15 AM","endTime":"9:15 AM","type":"C"}]},{"name":"FAST BREAK WEEKEND","location":{"name":"West Side YMCA","address":"5 West 63rd Street","meetingDetails":"","state":"NY","zip":"10023","adaAccessible":true,"coordinate":{"latitude":"40.7708644","longitude":"-73.9806413"}},"times":[{"day":"Sundays","startTime":"8:00 AM","endTime":"9:00 AM","type":"C"},{"day":"Saturdays","startTime":"8:00 AM","endTime":"9:00 AM","type":"C"}]},{"name":"FIRESIDE  (:II)  WEEKEND MEETINGS ONLY","location":{"name":"West Side YMCA","address":"5 West 63rd Street","meetingDetails":"T 1st Saturday @ 12:30pm","state":"NY","zip":"10023","adaAccessible":false,"coordinate":{"latitude":"40.7708644","longitude":"-73.9806413"}},"times":[{"day":"Saturdays","startTime":"10:30 AM","endTime":"11:30 AM","type":"S"},{"day":"Sundays","startTime":"12:30 PM","endTime":"1:30 PM","type":"B"},{"day":"Saturdays","startTime":"12:30 PM","endTime":"1:30 PM","type":"S"}]},{"name":"FIRST THINGS FIRST","location":{"name":"Holy Name Church","address":"207 West 96th Street","meetingDetails":"Last Sat. of month at 10:15 = anniversary meeting","state":"NY","zip":"10025","adaAccessible":false,"coordinate":{"latitude":"40.7945161","longitude":"-73.9710419"}},"times":[{"day":"Mondays","startTime":"6:00 AM","endTime":"7:00 AM","type":"OD"},{"day":"Wednesdays","startTime":"6:00 AM","endTime":"7:00 AM","type":"OD"},{"day":"Saturdays","startTime":"6:00 AM","endTime":"7:00 AM","type":"OD"},{"day":"Thursdays","startTime":"6:00 AM","endTime":"7:00 AM","type":"S"},{"day":"Sundays","startTime":"6:00 AM","endTime":"7:00 AM","type":"OD"},{"day":"Tuesdays","startTime":"6:00 AM","endTime":"7:00 AM","type":"OD"},{"day":"Fridays","startTime":"6:00 AM","endTime":"7:00 AM","type":"BB"},{"day":"Fridays","startTime":"7:15 AM","endTime":"8:15 AM","type":"C"},{"day":"Wednesdays","startTime":"7:15 AM","endTime":"8:15 AM","type":"C"},{"day":"Saturdays","startTime":"7:15 AM","endTime":"8:15 AM","type":"S"},{"day":"Mondays","startTime":"7:15 AM","endTime":"8:15 AM","type":"C"},{"day":"Thursdays","startTime":"7:15 AM","endTime":"8:15 AM","type":"C"},{"day":"Sundays","startTime":"7:15 AM","endTime":"8:15 AM","type":"C"},{"day":"Tuesdays","startTime":"7:15 AM","endTime":"8:15 AM","type":"C"},{"day":"Fridays","startTime":"8:45 AM","endTime":"9:45 AM","type":"B"},{"day":"Wednesdays","startTime":"8:45 AM","endTime":"9:45 AM","type":"B"},{"day":"Saturdays","startTime":"8:45 AM","endTime":"9:45 AM","type":"B"},{"day":"Mondays","startTime":"8:45 AM","endTime":"9:45 AM","type":"B"},{"day":"Thursdays","startTime":"8:45 AM","endTime":"9:45 AM","type":"B"},{"day":"Sundays","startTime":"8:45 AM","endTime":"9:45 AM","type":"B"},{"day":"Tuesdays","startTime":"8:45 AM","endTime":"9:45 AM","type":"B"},{"day":"Tuesdays","startTime":"10:15 AM","endTime":"11:15 AM","type":"C"},{"day":"Fridays","startTime":"10:15 AM","endTime":"11:15 AM","type":"BB"},{"day":"Wednesdays","startTime":"10:15 AM","endTime":"11:15 AM","type":"S"},{"day":"Saturdays","startTime":"10:15 AM","endTime":"11:15 AM","type":"S"},{"day":"Mondays","startTime":"10:15 AM","endTime":"11:15 AM","type":"C"},{"day":"Thursdays","startTime":"10:15 AM","endTime":"11:15 AM","type":"OD"},{"day":"Sundays","startTime":"10:15 AM","endTime":"11:15 AM","type":"T"}]},{"name":"FRIDAY NIGHT STEP","location":{"name":"Church of St. Matthew and St. Timothy","address":"26 West 84th Street","meetingDetails":"MEETING NOW TAKES PLACE YEAR ROUND! Up concrete steps, take stairs on left, 2nd Floor (Sandford Hall)","state":"NY","zip":"10024","adaAccessible":false,"coordinate":{"latitude":"40.7844228","longitude":"-73.9716168"}},"times":[{"day":"Fridays","startTime":"6:30 PM","endTime":"7:45 PM","type":"S"}]},{"name":"GRUPO CAMINO REAL","location":{"name":"Holy Name School","address":"200 West 97th Street","meetingDetails":"Spanish speaking meetings.","state":"NY","zip":"10025","adaAccessible":false,"coordinate":{"latitude":"40.7948","longitude":"-73.9703"}},"times":[{"day":"Sundays","startTime":"4:30 PM","endTime":"5:30 PM","type":"OD"},{"day":"Thursdays","startTime":"7:00 PM","endTime":"8:00 PM","type":"C"}]},{"name":"GRUPO DULCES 24","location":{"name":"Grace House","address":"218 West 108th Street","meetingDetails":"B Last Friday Bilingual (English-Spanish) Meetings.","state":"NY","zip":"10025","adaAccessible":true,"coordinate":{"latitude":"40.8021037","longitude":"-73.9658778"}},"times":[{"day":"Mondays","startTime":"7:30 PM","endTime":"8:30 PM","type":"OD"},{"day":"Wednesdays","startTime":"7:30 PM","endTime":"8:30 PM","type":"C"},{"day":"Fridays","startTime":"7:30 PM","endTime":"8:30 PM","type":"OD"},{"day":"Sundays","startTime":"7:30 PM","endTime":"8:30 PM","type":"O"}]},{"name":"GRUPO LUZ DIVINA","location":{"name":"Iglesia Metodista Grace","address":"125 West 104th Street","meetingDetails":"Spanish speaking meeting.","state":"NY","zip":"10025","adaAccessible":true,"coordinate":{"latitude":"40.7985878","longitude":"-73.9649967"}},"times":[{"day":"Tuesdays","startTime":"7:30 PM","endTime":"8:30 PM","type":"O"}]},{"name":"HARGRAVE","location":{"name":"Hamilton House","address":"141 West 73rd Street","meetingDetails":"","state":"NY","zip":"10023","adaAccessible":true,"coordinate":{"latitude":"40.7789036","longitude":"-73.9799533"}},"times":[{"day":"Thursdays","startTime":"7:00 PM","endTime":"8:00 PM","type":"B"},{"day":"Fridays","startTime":"7:00 PM","endTime":"8:00 PM","type":"B"},{"day":"Thursdays","startTime":"8:15 PM","endTime":"9:15 PM","type":"C"}]},{"name":"LAMBDA WEST","location":{"name":"Rutgers Church","address":"236 West 73rd Street","meetingDetails":"Wed.6pm=Interpreted for the deaf and hard of hearing. Gay Men & Women Focus.  All are welcome.","state":"NY","zip":"10023","adaAccessible":true,"coordinate":{"latitude":"40.7796494","longitude":"-73.982239"}},"times":[{"day":"Saturdays","startTime":"6:00 PM","endTime":"7:00 PM","type":"S"},{"day":"Wednesdays","startTime":"6:00 PM","endTime":"7:00 PM","type":"OD"},{"day":"Wednesdays","startTime":"7:15 PM","endTime":"8:15 PM","type":"B"},{"day":"Wednesdays","startTime":"8:30 PM","endTime":"9:30 PM","type":"C"}]},{"name":"MANHATTAN VALLEY","location":{"name":"West End Presbyterian Church","address":"165 West 105th Street","meetingDetails":"","state":"NY","zip":"10025","adaAccessible":false,"coordinate":{"latitude":"40.7996866","longitude":"-73.9657282"}},"times":[{"day":"Wednesdays","startTime":"7:00 PM","endTime":"8:00 PM","type":"B"}]},{"name":"METROPOLIS MEN'S MEETING","location":{"name":"Holy Name Church","address":"207 West 96th Street","meetingDetails":"","state":"NY","zip":"10025","adaAccessible":false,"coordinate":{"latitude":"40.7945161","longitude":"-73.9710419"}},"times":[{"day":"Sundays","startTime":"5:45 PM","endTime":"7:00 PM","type":"C"}]},{"name":"MID","location":{"name":"Holy Name Church Rectory","address":"207 West 96th Street","meetingDetails":"Mon=11th Step Meditation, Fri= Alt.Step & Tradition Meeting","state":"NY","zip":"10025","adaAccessible":false,"coordinate":{"latitude":"40.7945161","longitude":"-73.9710419"}},"times":[{"day":"Fridays","startTime":"1:00 PM","endTime":"2:00 PM","type":"S"},{"day":"Mondays","startTime":"1:00 PM","endTime":"2:15 PM","type":"S"},{"day":"Tuesdays","startTime":"1:00 PM","endTime":"2:15 PM","type":"BB"},{"day":"Wednesdays","startTime":"1:00 PM","endTime":"2:15 PM","type":"OD"},{"day":"Thursdays","startTime":"1:00 PM","endTime":"2:15 PM","type":"C"}]},{"name":"MORNINGSIDE","location":{"name":"Advent Lutheran Church","address":"2504 Broadway","meetingDetails":"All meetings are non-smoking.","state":"NY","zip":"10025","adaAccessible":true,"coordinate":{"latitude":"40.6639307188879","longitude":"-73.9382749875207"}},"times":[{"day":"Saturdays","startTime":"6:30 PM","endTime":"7:30 PM","type":"B"},{"day":"Saturdays","startTime":"8:00 PM","endTime":"9:00 PM","type":"OD"},{"day":"Saturdays","startTime":"8:00 PM","endTime":"9:00 PM","type":"S"},{"day":"Saturdays","startTime":"9:15 PM","endTime":"10:15 PM","type":"OD"}]},{"name":"MORNINGSIDE HEIGHTS BEGINNERS","location":{"name":"Church of Notre Dame","address":"405 West 114th Street","meetingDetails":"","state":"NY","zip":"10025","adaAccessible":true,"coordinate":{"latitude":"40.7946083","longitude":"-73.9358608"}},"times":[{"day":"Wednesdays","startTime":"6:30 PM","endTime":"7:30 PM","type":"B"},{"day":"Fridays","startTime":"6:30 PM","endTime":"7:30 PM","type":"B"}]},{"name":"NEVER TOO LATE","location":{"name":"West End Collegiate Church","address":"368 West End Ave","meetingDetails":"All meetings are non-smoking.","state":"NY","zip":"10024","adaAccessible":false,"coordinate":{"latitude":"40.6639307188879","longitude":"-73.9382749875207"}},"times":[{"day":"Tuesdays","startTime":"7:30 PM","endTime":"8:30 PM","type":"C"}]},{"name":"NIGHT LIGHT","location":{"name":"St. Michael's Parish House","address":"225 West 99th Street","meetingDetails":"T 1st Monday Non-Smoking Meeting.","state":"NY","zip":"10025","adaAccessible":false,"coordinate":{"latitude":"40.7964452","longitude":"-73.9694226"}},"times":[{"day":"Mondays","startTime":"6:30 PM","endTime":"7:30 PM","type":"S"}]},{"name":"NIGHT LIGHT BEGINNERS","location":{"name":"Anshe Chesed Synagogue","address":"251 West 100th Street","meetingDetails":"Non-Smoking Meeting.","state":"NY","zip":"10025","adaAccessible":true,"coordinate":{"latitude":"40.7977791","longitude":"-73.9709911"}},"times":[{"day":"Thursdays","startTime":"6:00 PM","endTime":"7:00 PM","type":"B"}]},{"name":"NINETY","location":{"name":"Holy Name Church","address":"207 West 96th Street","meetingDetails":"Anniv. Last Thursday, Fri=Promises, Sat=As Bill Sees It","state":"NY","zip":"10025","adaAccessible":false,"coordinate":{"latitude":"40.7945161","longitude":"-73.9710419"}},"times":[{"day":"Sundays","startTime":"10:00 PM","endTime":"11:00 PM","type":"T"},{"day":"Mondays","startTime":"10:00 PM","endTime":"11:00 PM","type":"BB"},{"day":"Tuesdays","startTime":"10:00 PM","endTime":"11:00 PM","type":"S"},{"day":"Wednesdays","startTime":"10:00 PM","endTime":"11:00 PM","type":"BB"},{"day":"Thursdays","startTime":"10:00 PM","endTime":"11:00 PM","type":"B"},{"day":"Saturdays","startTime":"10:00 PM","endTime":"11:00 PM","type":"C"},{"day":"Fridays","startTime":"11:00 PM","endTime":"12:00 AM","type":"C"}]},{"name":"OXFORD  (:I)","location":{"name":"Church of St. Matthew &amp; St. Timothy","address":"26 West 84th Street","meetingDetails":"Interpreted for the Deaf and Hard of Hearing No meetings on holidays On Ground Floor Mon. & Wed.; Basement on Thurs.","state":"NY","zip":"10024","adaAccessible":true,"coordinate":{"latitude":"40.7844228","longitude":"-73.9716168"}},"times":[{"day":"s","startTime":"12:00 AM","endTime":"12:00 AM","type":""},{"day":"Mondays","startTime":"7:30 PM","endTime":"8:30 PM","type":"C"},{"day":"Wednesdays","startTime":"7:30 PM","endTime":"8:30 PM","type":"O"},{"day":"Thursdays","startTime":"7:30 PM","endTime":"8:30 PM","type":"BB"}]},{"name":"PROMISES PROMISES","location":{"name":"West Side YMCA","address":"5 West 63rd Street","meetingDetails":"","state":"NY","zip":"10023","adaAccessible":false,"coordinate":{"latitude":"40.7708644","longitude":"-73.9806413"}},"times":[{"day":"Saturdays","startTime":"6:30 PM","endTime":"7:30 PM","type":"C"}]},{"name":"RENEWAL WEST","location":{"name":"St. Ignatius Church","address":"552 West End Avenue","meetingDetails":"Anniv.  Last Sunday","state":"NY","zip":"10024","adaAccessible":false,"coordinate":{"latitude":"40.6639307188879","longitude":"-73.9382749875207"}},"times":[{"day":"Sundays","startTime":"7:00 PM","endTime":"8:00 PM","type":"B"}]},{"name":"ROUTES","location":{"name":"Phoenix House","address":"164 West 74 Street","meetingDetails":"","state":"NY","zip":"10024","adaAccessible":false,"coordinate":{"latitude":"40.6639307188879","longitude":"-73.9382749875207"}},"times":[{"day":"Saturdays","startTime":"6:00 PM","endTime":"7:00 PM","type":"B"},{"day":"Tuesdays","startTime":"7:00 PM","endTime":"8:00 PM","type":"B"}]},{"name":"RUDE AWAKENING","location":{"name":"Volunteers of America","address":"340 West 85th Street","meetingDetails":"Living Sober","state":"NY","zip":"10024","adaAccessible":false,"coordinate":{"latitude":"40.7887343","longitude":"-73.9798639"}},"times":[{"day":"Wednesdays","startTime":"8:30 PM","endTime":"9:30 PM","type":"C"}]},{"name":"SMITHEREENS","location":{"name":"West End Collegiate Church","address":"368 West End Avenue","meetingDetails":"All Meetings Are Non-Smoking.","state":"NY","zip":"10024","adaAccessible":false,"coordinate":{"latitude":"40.6639307188879","longitude":"-73.9382749875207"}},"times":[{"day":"Wednesdays","startTime":"7:00 PM","endTime":"8:00 PM","type":"B"},{"day":"Wednesdays","startTime":"8:15 PM","endTime":"9:15 PM","type":"S"}]},{"name":"SOBER STEPPING","location":{"name":"Blessed Sacrament Church Rectory","address":"152 West 71st Street","meetingDetails":"Alternates Betw.the Steps & Promises.","state":"NY","zip":"10023","adaAccessible":false,"coordinate":{"latitude":"40.7774259","longitude":"-73.9812051"}},"times":[{"day":"Saturdays","startTime":"6:30 PM","endTime":"7:30 PM","type":"S"}]},{"name":"SUNDAY MEN'S TOPIC","location":{"name":"West Side YMCA","address":"5 West 63rd Street","meetingDetails":"Men's Meeting","state":"NY","zip":"10023","adaAccessible":false,"coordinate":{"latitude":"40.7708644","longitude":"-73.9806413"}},"times":[{"day":"Sundays","startTime":"10:30 AM","endTime":"11:30 AM","type":"C"}]},{"name":"SUNDAY WEST","location":{"name":"","address":"131 West 72nd Street","meetingDetails":"Round Robin Topic Meeting.","state":"NY","zip":"10023","adaAccessible":false,"coordinate":{"latitude":"40.7780247","longitude":"-73.9798344"}},"times":[{"day":"Sundays","startTime":"12:00 PM","endTime":"1:00 PM","type":"C"}]},{"name":"TURN IT OVER","location":{"name":"Holy Name Church","address":"207 West 96th Street","meetingDetails":"T Last Friday","state":"NY","zip":"10025","adaAccessible":false,"coordinate":{"latitude":"40.7945161","longitude":"-73.9710419"}},"times":[{"day":"Thursdays","startTime":"3:30 PM","endTime":"4:30 PM","type":"B"},{"day":"Tuesdays","startTime":"3:30 PM","endTime":"4:30 PM","type":"B"},{"day":"Tuesdays","startTime":"4:30 PM","endTime":"5:30 PM","type":"C"},{"day":"Thursdays","startTime":"4:30 PM","endTime":"5:30 PM","type":"C"},{"day":"Fridays","startTime":"4:30 PM","endTime":"5:30 PM","type":"S"}]},{"name":"WAY OF LIFE","location":{"name":"Blessed Sacrament Church Rectory","address":"152 West 71st Street","meetingDetails":"10am=As Bill Sees It, 11:15am=Topic Meeting","state":"NY","zip":"10023","adaAccessible":false,"coordinate":{"latitude":"40.7774259","longitude":"-73.9812051"}},"times":[{"day":"Saturdays","startTime":"10:00 AM","endTime":"11:00 AM","type":"C"},{"day":"Saturdays","startTime":"11:15 AM","endTime":"12:15 PM","type":"C"}]},{"name":"WE AGNOSTICS OF NYC","location":{"name":"Stephen Wise Free Synagogue","address":"30 West 68th Street","meetingDetails":"S Last Thursday,  No Prayers.","state":"NY","zip":"10023","adaAccessible":true,"coordinate":{"latitude":"40.7740859","longitude":"-73.979107"}},"times":[{"day":"Thursdays","startTime":"6:15 PM","endTime":"7:15 PM","type":"C"}]},{"name":"WE ARE NOT DOCTORS (WESTSIDE)","location":{"name":"Holy Name Church","address":"207 West 96th Street","meetingDetails":"Issues of medication in recovery are discussed.  All are welcome.","state":"NY","zip":"10025","adaAccessible":false,"coordinate":{"latitude":"40.7945161","longitude":"-73.9710419"}},"times":[{"day":"Wednesdays","startTime":"4:45 PM","endTime":"5:45 PM","type":"OD"}]},{"name":"WEST END","location":{"name":"Church of St. Paul &amp; St. Andrew","address":"263 West 86th Street","meetingDetails":"","state":"NY","zip":"10024","adaAccessible":true,"coordinate":{"latitude":"40.7887918","longitude":"-73.9772649"}},"times":[{"day":"Thursdays","startTime":"7:00 PM","endTime":"8:00 PM","type":"B"},{"day":"Thursdays","startTime":"7:00 PM","endTime":"8:00 PM","type":"S"},{"day":"Tuesdays","startTime":"7:00 PM","endTime":"8:00 PM","type":"B"},{"day":"Tuesdays","startTime":"7:00 PM","endTime":"8:00 PM","type":"BB"}]},{"name":"WESTSIDE 11th STEP MEDITATION WORKSHOP","location":{"name":"Addiction Institute","address":"306 West 102nd Street","meetingDetails":"","state":"NY","zip":"10025","adaAccessible":false,"coordinate":{"latitude":"40.7992334","longitude":"-73.9710638"}},"times":[{"day":"Wednesdays","startTime":"7:00 PM","endTime":"8:00 PM","type":"C"}]},{"name":"WESTSIDE STEP","location":{"name":"Blessed Sacrament Church Rectory","address":"152 West 71st Street","meetingDetails":"","state":"NY","zip":"10023","adaAccessible":false,"coordinate":{"latitude":"40.7774259","longitude":"-73.9812051"}},"times":[{"day":"Fridays","startTime":"7:00 PM","endTime":"8:00 PM","type":"S"}]},{"name":"WESTSIDE YOUNG PEOPLE","location":{"name":"Church of St.Matthew &amp; St. Timothy","address":"26 West 84th Street","meetingDetails":"Anniv. Meeting Last Saturday.","state":"NY","zip":"10024","adaAccessible":false,"coordinate":{"latitude":"40.7844228","longitude":"-73.9716168"}},"times":[{"day":"Saturdays","startTime":"7:00 PM","endTime":"8:00 PM","type":"B"}]},{"name":"WITHOUT A PRAYER","location":{"name":"Goddard Riverside Community Center","address":"595 Columbus Avenue","meetingDetails":"","state":"NY","zip":"10024","adaAccessible":true,"coordinate":{"latitude":"40.7879892","longitude":"-73.9707609"}},"times":[{"day":"Saturdays","startTime":"5:00 PM","endTime":"6:00 PM","type":"OD"}]},{"name":"WOMEN LIVING SOBER","location":{"name":"Trinity Halfway House","address":"306 West 102nd Street","meetingDetails":"S 2nd Wednesday","state":"NY","zip":"10025","adaAccessible":false,"coordinate":{"latitude":"40.7992334","longitude":"-73.9710638"}},"times":[{"day":"Wednesdays","startTime":"9:00 AM","endTime":"10:00 AM","type":"C"},{"day":"Saturdays","startTime":"9:00 AM","endTime":"10:00 AM","type":"C"}]},{"name":"WOMEN WEST AA","location":{"name":"Holy Trinity Church","address":"213 West 82nd Street","meetingDetails":"Women's Meeting","state":"NY","zip":"10024","adaAccessible":true,"coordinate":{"latitude":"40.7855603","longitude":"-73.9776992"}},"times":[{"day":"Fridays","startTime":"7:00 PM","endTime":"8:00 PM","type":"C"}]},{"name":"WOMEN'S BEGINNING LITERATURE","location":{"name":"Blessed Sacrament (Rectory)","address":"152 West 71st Street","meetingDetails":"Wed= Alternate BB and Living Sober.","state":"NY","zip":"10023","adaAccessible":false,"coordinate":{"latitude":"40.7774259","longitude":"-73.9812051"}},"times":[{"day":"Thursdays","startTime":"12:00 PM","endTime":"1:00 PM","type":"C"},{"day":"Mondays","startTime":"12:00 PM","endTime":"1:15 PM","type":"C"},{"day":"Wednesdays","startTime":"12:30 PM","endTime":"1:30 PM","type":"B"}]},{"name":"WOMEN'S ELEVENTH STEP MEETING","location":{"name":"","address":"152 west 71st street","meetingDetails":"","state":"NY","zip":null,"adaAccessible":true,"coordinate":{"latitude":"40.7774259","longitude":"-73.9812051"}},"times":[{"day":"Mondays","startTime":"12:00 PM","endTime":"1:00 PM","type":"OD"}]},{"name":"WOMEN'S TELL IT LIKE IT IS","location":{"name":"Blessed Sacrament (Rectory)","address":"152 West 71st Street","meetingDetails":"Women's Meeting","state":"NY","zip":"10023","adaAccessible":true,"coordinate":{"latitude":"40.7774259","longitude":"-73.9812051"}},"times":[{"day":"Mondays","startTime":"12:00 PM","endTime":"1:15 PM","type":"C"}]},{"name":"WOMEN'S WESTSIDE TOPIC","location":{"name":"Universalist Church","address":"160 Central Park West","meetingDetails":"Women's Meeting","state":"NY","zip":"10023","adaAccessible":false,"coordinate":{"latitude":"40.7787712","longitude":"-73.9743066"}},"times":[{"day":"Tuesdays","startTime":"6:30 PM","endTime":"7:30 PM","type":"C"}]},{"name":"WRITING SOBER","location":{"name":"Holy Name Church","address":"207 West 96th Street","meetingDetails":"","state":"NY","zip":"10025","adaAccessible":false,"coordinate":{"latitude":"40.7945161","longitude":"-73.9710419"}},"times":[{"day":"Wednesdays","startTime":"6:00 PM","endTime":"7:00 PM","type":"C"}]},{"name":"A BAFFLED LOT","location":{"name":"Jan Hus Church","address":"351 East 74th Street","meetingDetails":"Topic Meeting","state":"NY","zip":"10021","adaAccessible":false,"coordinate":{"latitude":"40.7694194","longitude":"-73.9555151"}},"times":[{"day":"Saturdays","startTime":"7:30 AM","endTime":"8:30 AM","type":"OD"}]},{"name":"A.A. TRADITIONS AND HISTORY","location":{"name":"Manhattan Church of Christ","address":"48 East 80th Street","meetingDetails":"Traditions Meeting","state":"NY","zip":"10021","adaAccessible":true,"coordinate":{"latitude":"40.7767263","longitude":"-73.9612366"}},"times":[{"day":"Tuesdays","startTime":"7:00 PM","endTime":"8:00 PM","type":"T"}]},{"name":"ACTIVE","location":{"name":"St. Jean Baptiste Church","address":"184 East 76th Street","meetingDetails":"","state":"NY","zip":"10021","adaAccessible":true,"coordinate":{"latitude":"40.7725462","longitude":"-73.9594994"}},"times":[{"day":"Wednesdays","startTime":"6:00 PM","endTime":"7:00 PM","type":"S"}]},{"name":"AFTERNOON AWAKENING","location":{"name":"Jan Hus Church","address":"351 East 74th Street","meetingDetails":"Mon=Living Sober, Thu=11 Step with meditation, Fri=3rd Step","state":"NY","zip":"10021","adaAccessible":false,"coordinate":{"latitude":"40.7694194","longitude":"-73.9555151"}},"times":[{"day":"Mondays","startTime":"2:30 PM","endTime":"3:30 PM","type":"B"},{"day":"Tuesdays","startTime":"2:30 PM","endTime":"3:30 PM","type":"S"},{"day":"Wednesdays","startTime":"2:30 PM","endTime":"3:30 PM","type":"BB"},{"day":"Thursdays","startTime":"2:30 PM","endTime":"3:30 PM","type":"S"},{"day":"Fridays","startTime":"2:30 PM","endTime":"3:30 PM","type":"S"}]},{"name":"ATLANTIC ELEVENTH STEP MEDITATION","location":{"name":"Church of the Epiphany","address":"1393 York Avenue","meetingDetails":"","state":"NY","zip":"10021","adaAccessible":false,"coordinate":{"latitude":"40.6639307188879","longitude":"-73.9382749875207"}},"times":[{"day":"Mondays","startTime":"7:15 PM","endTime":"8:15 PM","type":"S"}]},{"name":"ATLANTIC GROUP (:I)","location":{"name":"Christ United Methodist Church","address":"520 Park Avenue","meetingDetails":"Three speaker","state":"NY","zip":"10021","adaAccessible":true,"coordinate":{"latitude":"40.6639307188879","longitude":"-73.9382749875207"}},"times":[{"day":"Tuesdays","startTime":"7:00 PM","endTime":"8:00 PM","type":"O"}]},{"name":"ATLANTIC GROUP (:II)","location":{"name":"Archdiocian Cathedral of the Holy Trinity","address":"337 E. 74th St.","meetingDetails":"","state":"NY","zip":"10021","adaAccessible":true,"coordinate":{"latitude":"40.7696836","longitude":"-73.9561119"}},"times":[{"day":"Thursdays","startTime":"7:00 PM","endTime":"8:00 PM","type":"B"}]},{"name":"ATLANTIC GROUP (:III)","location":{"name":"All Souls Church","address":"1157 Lexington Avenue","meetingDetails":"Two speaker","state":"NY","zip":"10075","adaAccessible":true,"coordinate":{"latitude":"40.7754455","longitude":"-73.9583638"}},"times":[{"day":"Saturdays","startTime":"6:00 PM","endTime":"7:00 PM","type":"O"}]},{"name":"BREAKING THROUGH","location":{"name":"Gracie Square Hospital","address":"420 East 76th Street","meetingDetails":"*Open Last Friday Check with front desk security for meeting room location.","state":"NY","zip":"10021","adaAccessible":true,"coordinate":{"latitude":"40.7697705","longitude":"-73.9529077"}},"times":[{"day":"Fridays","startTime":"6:30 PM","endTime":"7:30 PM","type":"B"}]},{"name":"CAME TO BELIEVE","location":{"name":"Our Lady of Good Counsel Church","address":"230 East 90th Street","meetingDetails":"Anniv. Last Sunday; every other month.","state":"NY","zip":"10128","adaAccessible":false,"coordinate":{"latitude":"40.780841","longitude":"-73.9510956"}},"times":[{"day":"Sundays","startTime":"3:30 PM","endTime":"4:30 PM","type":"B"}]},{"name":"CARNEGIE HILL","location":{"name":"St. Thomas More Church","address":"65 East 89th Street","meetingDetails":"","state":"NY","zip":"10128","adaAccessible":false,"coordinate":{"latitude":"40.78259","longitude":"-73.9566571"}},"times":[{"day":"Tuesdays","startTime":"6:15 PM","endTime":"7:15 PM","type":"C"}]},{"name":"CENTRAL","location":{"name":"St. James Episcopal Church","address":"865 Madison Avenue","meetingDetails":"","state":"NY","zip":"10021","adaAccessible":false,"coordinate":{"latitude":"40.7713251","longitude":"-73.9655852"}},"times":[{"day":"Sundays","startTime":"5:00 PM","endTime":"5:45 PM","type":"O"},{"day":"Sundays","startTime":"6:00 PM","endTime":"7:00 PM","type":"S"},{"day":"Sundays","startTime":"6:00 PM","endTime":"7:00 PM","type":"OD"},{"day":"Sundays","startTime":"7:15 PM","endTime":"8:15 PM","type":"B"}]},{"name":"CHAPTER FIVE","location":{"name":"Immanuel Lutheran Church","address":"1296 Lexington Avenue","meetingDetails":"Fri.6:15=Women's Meeting","state":"NY","zip":"10128","adaAccessible":false,"coordinate":{"latitude":"40.780135833909","longitude":"-73.9552304898083"}},"times":[{"day":"Mondays","startTime":"7:15 AM","endTime":"8:15 AM","type":"BB"},{"day":"Tuesdays","startTime":"7:15 AM","endTime":"8:15 AM","type":"OD"},{"day":"Wednesdays","startTime":"7:15 AM","endTime":"8:15 AM","type":"S"},{"day":"Thursdays","startTime":"7:15 AM","endTime":"8:15 AM","type":"OD"},{"day":"Fridays","startTime":"7:15 AM","endTime":"8:15 AM","type":"OD"},{"day":"Sundays","startTime":"8:00 AM","endTime":"9:00 AM","type":"OD"},{"day":"Saturdays","startTime":"8:00 AM","endTime":"9:00 AM","type":"OD"},{"day":"Fridays","startTime":"6:15 PM","endTime":"7:30 PM","type":"S"},{"day":"Sundays","startTime":"7:00 PM","endTime":"8:00 PM","type":"C"},{"day":"Wednesdays","startTime":"7:30 PM","endTime":"9:00 PM","type":"B"},{"day":"Thursdays","startTime":"8:00 PM","endTime":"9:15 PM","type":"BB"}]},{"name":"ELEVENTH STEP AT JAN HUS","location":{"name":"Jan Hus Church","address":"351 East 74th Street","meetingDetails":"11th Step Meditation Meeting.","state":"NY","zip":"10021","adaAccessible":false,"coordinate":{"latitude":"40.7694194","longitude":"-73.9555151"}},"times":[{"day":"Sundays","startTime":"9:00 AM","endTime":"10:00 AM","type":"S"}]},{"name":"FEARLESS","location":{"name":"All Souls Uniterian Church","address":"1157 Lexington Avenue","meetingDetails":"Topic Meeting","state":"NY","zip":"10028","adaAccessible":false,"coordinate":{"latitude":"40.7754455","longitude":"-73.9583638"}},"times":[{"day":"Fridays","startTime":"7:30 PM","endTime":"8:30 PM","type":"C"}]},{"name":"FRIDAY CENTRAL","location":{"name":"Jan Hus Church","address":"351 East 74th Street","meetingDetails":"","state":"NY","zip":"10021","adaAccessible":false,"coordinate":{"latitude":"40.7694194","longitude":"-73.9555151"}},"times":[{"day":"Fridays","startTime":"6:30 PM","endTime":"7:30 PM","type":"C"}]},{"name":"FRIDAY NIGHT GAY MEN &amp; WOMEN","location":{"name":"Jan Hus Church","address":"351 East 74th Street","meetingDetails":"1st Step Gay & lesbian focus.  All are welcome.","state":"NY","zip":"10021","adaAccessible":false,"coordinate":{"latitude":"40.7694194","longitude":"-73.9555151"}},"times":[{"day":"Fridays","startTime":"8:00 PM","endTime":"9:00 PM","type":"S"}]},{"name":"FRIDAY NIGHT MEN'S STEP","location":{"name":"St. Thomas More Church Rectory","address":"65 East 89th Street","meetingDetails":"Men's Meeting","state":"NY","zip":"10128","adaAccessible":false,"coordinate":{"latitude":"40.78259","longitude":"-73.9566571"}},"times":[{"day":"Fridays","startTime":"6:15 PM","endTime":"7:15 PM","type":"S"}]},{"name":"HUMANISTS TOO","location":{"name":"Church of Saint Thomas Moore","address":"65 East 89th Street - Rectory basement","meetingDetails":"Agnostic","state":"NY","zip":"10128","adaAccessible":false,"coordinate":{"latitude":"40.78259","longitude":"-73.9566571"}},"times":[{"day":"Mondays","startTime":"6:15 PM","endTime":"7:15 PM","type":"Agnostic\n\t\t\t"}]},{"name":"I'M ALL IN","location":{"name":"Jan Hus Church","address":"351 East 74th Street","meetingDetails":"","state":"NY","zip":"10021","adaAccessible":false,"coordinate":{"latitude":"40.7694194","longitude":"-73.9555151"}},"times":[{"day":"Tuesdays","startTime":"12:30 PM","endTime":"1:30 PM","type":"B"},{"day":"Wednesdays","startTime":"12:30 PM","endTime":"1:30 PM","type":"B"},{"day":"Thursdays","startTime":"12:30 PM","endTime":"1:30 PM","type":"B"},{"day":"Fridays","startTime":"12:30 PM","endTime":"1:30 PM","type":"B"},{"day":"Saturdays","startTime":"12:30 PM","endTime":"1:30 PM","type":"B"},{"day":"Mondays","startTime":"12:30 PM","endTime":"1:30 PM","type":"B"}]},{"name":"INTO ACTION MANHATTAN","location":{"name":"St. Francis de Sales Church","address":"135 East 96th Street","meetingDetails":"lower level","state":"NY","zip":"10128","adaAccessible":false,"coordinate":{"latitude":"40.7694194","longitude":"-73.9555151"}},"times":[{"day":"Wednesdays","startTime":"6:30 PM","endTime":"7:30 PM","type":"S"}]},{"name":"KITCHEN TABLE MEETING","location":{"name":"Jan Hus Presbyterian Church","address":"351 East 74th Street","meetingDetails":"","state":"NY","zip":"10021","adaAccessible":false,"coordinate":{"latitude":"40.7862757","longitude":"-73.951491"}},"times":[{"day":"Saturdays","startTime":"11:00 AM","endTime":"12:00 PM","type":"C"}]},{"name":"LENOX HILL","location":{"name":"Church of the Heavenly Rest","address":"2 East 90th Street","meetingDetails":"","state":"NY","zip":"10128","adaAccessible":false,"coordinate":{"latitude":"40.7836928","longitude":"-73.9578694"}},"times":[{"day":"Mondays","startTime":"7:00 PM","endTime":"8:00 PM","type":"B"},{"day":"Mondays","startTime":"7:00 PM","endTime":"8:00 PM","type":"S"},{"day":"Thursdays","startTime":"7:00 PM","endTime":"8:00 PM","type":"O"},{"day":"Thursdays","startTime":"8:15 PM","endTime":"9:00 PM","type":"B"},{"day":"Mondays","startTime":"8:15 PM","endTime":"9:00 PM","type":"C"}]},{"name":"LEX 80 STEP","location":{"name":"All Souls Uniterian Church","address":"1157 Lexington Avenue","meetingDetails":"Southside Chapel","state":"NY","zip":"10028","adaAccessible":true,"coordinate":{"latitude":"40.7754455","longitude":"-73.9583638"}},"times":[{"day":"Wednesdays","startTime":"6:30 PM","endTime":"7:30 PM","type":"S"}]},{"name":"LIVE AND LET LIVE","location":{"name":"Gracie Square Hospital","address":"420 East 76th Street","meetingDetails":"Thurs=Topic Meeting, Check in with security at front desk. Gay & lesbian focus.  All are welcome.","state":"NY","zip":"10021","adaAccessible":true,"coordinate":{"latitude":"40.7697705","longitude":"-73.9529077"}},"times":[{"day":"Tuesdays","startTime":"7:00 PM","endTime":"8:00 PM","type":"B"},{"day":"Thursdays","startTime":"7:00 PM","endTime":"8:00 PM","type":"OD"},{"day":"Tuesdays","startTime":"8:30 PM","endTime":"9:30 PM","type":"C"}]},{"name":"MADISON 73","location":{"name":"Jan Hus Presbyterian Church","address":"351 East 74th Street","meetingDetails":"All Meetings Are Non-Smoking.","state":"NY","zip":"10021","adaAccessible":false,"coordinate":{"latitude":"40.7694194","longitude":"-73.9555151"}},"times":[{"day":"Saturdays","startTime":"7:00 PM","endTime":"8:00 PM","type":"B"},{"day":"Saturdays","startTime":"7:00 PM","endTime":"8:00 PM","type":"S"}]},{"name":"MEDITATION (EXPECT MIRACLES)","location":{"name":"Jan Hus Church","address":"351 East 74th Street","meetingDetails":"All meetings are 11th Step Meditation format.","state":"NY","zip":"10021","adaAccessible":false,"coordinate":{"latitude":"40.7694194","longitude":"-73.9555151"}},"times":[{"day":"Thursdays","startTime":"11:00 AM","endTime":"12:00 PM","type":"OD"},{"day":"Fridays","startTime":"11:00 AM","endTime":"12:00 PM","type":"OD"},{"day":"Mondays","startTime":"11:00 AM","endTime":"12:00 PM","type":"OD"},{"day":"Tuesdays","startTime":"11:00 AM","endTime":"12:00 PM","type":"OD"},{"day":"Wednesdays","startTime":"11:00 AM","endTime":"12:00 PM","type":"OD"},{"day":"Wednesdays","startTime":"8:00 PM","endTime":"9:00 PM","type":"OD"}]},{"name":"MEN'S NYC BIG BOOK STEP STUDY","location":{"name":"Philomathist Center","address":"1285 Madison Avenue","meetingDetails":"Ring Bell for entry","state":"NY","zip":"10128","adaAccessible":false,"coordinate":{"latitude":"40.7843189","longitude":"-73.9560924"}},"times":[{"day":"Wednesdays","startTime":"7:00 PM","endTime":"8:30 PM","type":"BB"}]},{"name":"METROPOLITAN","location":{"name":"St. Ignatius Loyola School","address":"48 East 84th Street","meetingDetails":"Tue.6:30=Literature Topic,Sat=Meets in the Rectory. Wheel Chair Access on Tuesday & Sunday Only","state":"NY","zip":"10028","adaAccessible":true,"coordinate":{"latitude":"40.7790604","longitude":"-73.9588788"}},"times":[{"day":"Saturdays","startTime":"3:15 PM","endTime":"4:15 PM","type":"S"},{"day":"Sundays","startTime":"6:15 PM","endTime":"7:15 PM","type":"B"},{"day":"Tuesdays","startTime":"6:30 PM","endTime":"7:30 PM","type":""},{"day":"Sundays","startTime":"7:30 PM","endTime":"8:30 PM","type":"S"},{"day":"Tuesdays","startTime":"7:45 PM","endTime":"8:45 PM","type":"B"}]},{"name":"MONDAY EAST TOPIC","location":{"name":"St. Stephen of Hungary Church","address":"408 East 82nd Street","meetingDetails":"Round Robin format & No Meeting on Legal Holidays.","state":"NY","zip":"10028","adaAccessible":false,"coordinate":{"latitude":"40.7738528","longitude":"-73.9504699"}},"times":[{"day":"Mondays","startTime":"7:00 PM","endTime":"8:00 PM","type":"C"}]},{"name":"MONDAY WOMEN","location":{"name":"Jan Hus Church","address":"351 East 74th Street","meetingDetails":"AA Literature Topic Meeting & Open last Monday. Women's Meeting","state":"NY","zip":"10021","adaAccessible":false,"coordinate":{"latitude":"40.7694194","longitude":"-73.9555151"}},"times":[{"day":"Mondays","startTime":"7:15 PM","endTime":"8:15 PM","type":"C"}]},{"name":"MORNING REFLECTIONS","location":{"name":"Jan Hus Church","address":"351 East 74th Street","meetingDetails":"Daily Reflections readings & round robin format Discussion","state":"NY","zip":"10021","adaAccessible":false,"coordinate":{"latitude":"40.7694194","longitude":"-73.9555151"}},"times":[{"day":"Wednesdays","startTime":"9:30 AM","endTime":"10:30 AM","type":"OD"},{"day":"Thursdays","startTime":"9:30 AM","endTime":"10:30 AM","type":"OD"},{"day":"Fridays","startTime":"9:30 AM","endTime":"10:30 AM","type":"OD"},{"day":"Mondays","startTime":"9:30 AM","endTime":"10:30 AM","type":"OD"},{"day":"Tuesdays","startTime":"9:30 AM","endTime":"10:30 AM","type":"OD"}]},{"name":"NEW CHOICES","location":{"name":"Congregational Kehilath Jeshurun","address":"125 East 85th Street","meetingDetails":"","state":"NY","zip":"10028","adaAccessible":true,"coordinate":{"latitude":"40.7790514","longitude":"-73.956386"}},"times":[{"day":"Mondays","startTime":"6:30 PM","endTime":"7:30 PM","type":"C"},{"day":"Wednesdays","startTime":"6:30 PM","endTime":"7:30 PM","type":"S"}]},{"name":"OPEN BOOK","location":{"name":"Jan Hus Church","address":"351 East 74th Street","meetingDetails":"Big Book Study","state":"NY","zip":"10021","adaAccessible":false,"coordinate":{"latitude":"40.7694194","longitude":"-73.9555151"}},"times":[{"day":"Mondays","startTime":"7:15 PM","endTime":"8:15 PM","type":"BB"}]},{"name":"OUR PRIMARY PURPOSE","location":{"name":"Jan Hus Church","address":"351 East 74th Street","meetingDetails":"Women's Meeting.","state":"NY","zip":"10021","adaAccessible":false,"coordinate":{"latitude":"40.7694194","longitude":"-73.9555151"}},"times":[{"day":"Saturdays","startTime":"9:30 AM","endTime":"10:30 AM","type":"S"}]},{"name":"PARK BENCH   (:II)","location":{"name":"St. James Church","address":"865 Madison Avenue","meetingDetails":"","state":"NY","zip":"10021","adaAccessible":true,"coordinate":{"latitude":"40.7713251","longitude":"-73.9655852"}},"times":[{"day":"Wednesdays","startTime":"12:30 PM","endTime":"1:30 PM","type":"C"},{"day":"Thursdays","startTime":"12:30 PM","endTime":"1:30 PM","type":"C"}]},{"name":"PARK MADISON","location":{"name":"Brick Church Parish House","address":"62 East 92nd Street","meetingDetails":"Tue.8pm=Topic Round Robin, Anniv Last Fri.@ 6:45 Church Closed Friday; No Meetings In July & August All meetings are non-smoking.","state":"NY","zip":"10128","adaAccessible":true,"coordinate":{"latitude":"40.6627546","longitude":"-73.928788"}},"times":[{"day":"Fridays","startTime":"6:45 PM","endTime":"7:45 PM","type":"C"},{"day":"Tuesdays","startTime":"6:45 PM","endTime":"7:45 PM","type":"B"},{"day":"Tuesdays","startTime":"8:00 PM","endTime":"9:00 PM","type":"C"},{"day":"Fridays","startTime":"8:00 PM","endTime":"9:00 PM","type":"S"}]},{"name":"PERSEVERANCE","location":{"name":"Jan Hus Church","address":"351 East 74th Street","meetingDetails":"","state":"NY","zip":"10021","adaAccessible":false,"coordinate":{"latitude":"40.7694194","longitude":"-73.9555151"}},"times":[{"day":"Saturdays","startTime":"11:00 AM","endTime":"12:00 PM","type":"OD"}]},{"name":"RECOVERY ROOM","location":{"name":"St. Joseph's School","address":"420 East 87th Street","meetingDetails":"","state":"NY","zip":"10128","adaAccessible":false,"coordinate":{"latitude":"40.7770465","longitude":"-73.9479432"}},"times":[{"day":"Wednesdays","startTime":"7:00 PM","endTime":"8:00 PM","type":"B"}]},{"name":"RENEWAL EAST","location":{"name":"Central Presbyterian Church","address":"593 Park Avenue","meetingDetails":"","state":"NY","zip":"10128","adaAccessible":true,"coordinate":{"latitude":"40.6639307188879","longitude":"-73.9382749875207"}},"times":[{"day":"Wednesdays","startTime":"6:30 PM","endTime":"7:30 PM","type":"C"}]},{"name":"RENEWAL NORTH","location":{"name":"St. Thomas More Church","address":"65 East 89th Street","meetingDetails":"","state":"NY","zip":"10128","adaAccessible":true,"coordinate":{"latitude":"40.78259","longitude":"-73.9566571"}},"times":[{"day":"Thursdays","startTime":"6:30 PM","endTime":"7:30 PM","type":"OD"}]},{"name":"RHINELANDER","location":{"name":"St. James Episcopal Church","address":"865 Madison Avenue","meetingDetails":"Mon.6pm & Thu.6pm Meetings end @ 6:50pm.","state":"NY","zip":"10021","adaAccessible":false,"coordinate":{"latitude":"40.7713251","longitude":"-73.9655852"}},"times":[{"day":"Mondays","startTime":"6:00 PM","endTime":"7:00 PM","type":"OD"},{"day":"Thursdays","startTime":"6:00 PM","endTime":"7:00 PM","type":"S"},{"day":"Thursdays","startTime":"7:00 PM","endTime":"8:00 PM","type":"B"},{"day":"Mondays","startTime":"7:00 PM","endTime":"8:00 PM","type":"B"}]},{"name":"ROOSEVELT ISLAND SERENITY","location":{"name":"","address":"Church of the Good Shepard","meetingDetails":"","state":"NY","zip":"10044","adaAccessible":true,"coordinate":{"latitude":"40.6639307188879","longitude":"-73.9382749875207"}},"times":[{"day":"Saturdays","startTime":"6:30 PM","endTime":"7:30 PM","type":"C"}]},{"name":"SEVENTY","location":{"name":"St. Monica's Church","address":"413 East 79th Street","meetingDetails":"Sun.10am=11th S, Tue.6am=Came To Believe Thu.6am=Step & Trad.","state":"NY","zip":"10021","adaAccessible":false,"coordinate":{"latitude":"40.7721222","longitude":"-73.9517608"}},"times":[{"day":"Tuesdays","startTime":"6:00 AM","endTime":"7:00 AM","type":"C"},{"day":"Mondays","startTime":"6:00 AM","endTime":"7:00 AM","type":"C"},{"day":"Fridays","startTime":"6:00 AM","endTime":"7:00 AM","type":"BB"},{"day":"Thursdays","startTime":"6:00 AM","endTime":"7:00 AM","type":"S"},{"day":"Wednesdays","startTime":"6:00 AM","endTime":"7:00 AM","type":"C"},{"day":"Tuesdays","startTime":"7:15 AM","endTime":"8:15 AM","type":"C"},{"day":"Mondays","startTime":"7:15 AM","endTime":"8:15 AM","type":"C"},{"day":"Fridays","startTime":"7:15 AM","endTime":"8:15 AM","type":"C"},{"day":"Thursdays","startTime":"7:15 AM","endTime":"8:15 AM","type":"C"},{"day":"Wednesdays","startTime":"7:15 AM","endTime":"8:15 AM","type":"C"},{"day":"Saturdays","startTime":"8:00 AM","endTime":"9:00 AM","type":"C"},{"day":"Sundays","startTime":"8:00 AM","endTime":"9:00 AM","type":"C"},{"day":"Wednesdays","startTime":"8:30 AM","endTime":"9:30 AM","type":"T"},{"day":"Tuesdays","startTime":"8:30 AM","endTime":"9:30 AM","type":"C"},{"day":"Mondays","startTime":"8:30 AM","endTime":"9:30 AM","type":"C"},{"day":"Fridays","startTime":"8:30 AM","endTime":"9:30 AM","type":"S"},{"day":"Thursdays","startTime":"8:30 AM","endTime":"9:30 AM","type":"BB"},{"day":"Thursdays","startTime":"10:00 AM","endTime":"11:00 AM","type":"T"},{"day":"Wednesdays","startTime":"10:00 AM","endTime":"11:00 AM","type":"C"},{"day":"Tuesdays","startTime":"10:00 AM","endTime":"11:00 AM","type":"S"},{"day":"Mondays","startTime":"10:00 AM","endTime":"11:00 AM","type":"B"},{"day":"Saturdays","startTime":"10:00 AM","endTime":"11:00 AM","type":"C"},{"day":"Sundays","startTime":"10:00 AM","endTime":"11:00 AM","type":"S"},{"day":"Fridays","startTime":"10:00 AM","endTime":"11:00 AM","type":"BB"},{"day":"Thursdays","startTime":"12:30 PM","endTime":"1:30 PM","type":"C"},{"day":"Wednesdays","startTime":"12:30 PM","endTime":"1:30 PM","type":"S"},{"day":"Tuesdays","startTime":"12:30 PM","endTime":"1:30 PM","type":"C"},{"day":"Mondays","startTime":"12:30 PM","endTime":"1:30 PM","type":"B"},{"day":"Saturdays","startTime":"12:30 PM","endTime":"1:30 PM","type":"C"},{"day":"Sundays","startTime":"12:30 PM","endTime":"1:30 PM","type":"C"},{"day":"Fridays","startTime":"12:30 PM","endTime":"1:30 PM","type":"C"},{"day":"Saturdays","startTime":"2:00 PM","endTime":"3:00 PM","type":"C"},{"day":"Sundays","startTime":"2:00 PM","endTime":"3:00 PM","type":"C"},{"day":"Fridays","startTime":"4:00 PM","endTime":"5:00 PM","type":"S"},{"day":"Thursdays","startTime":"4:00 PM","endTime":"5:00 PM","type":"C"},{"day":"Wednesdays","startTime":"4:00 PM","endTime":"5:00 PM","type":"B"},{"day":"Tuesdays","startTime":"4:00 PM","endTime":"5:00 PM","type":"BB"},{"day":"Mondays","startTime":"4:00 PM","endTime":"5:00 PM","type":"B"},{"day":"Saturdays","startTime":"4:00 PM","endTime":"5:00 PM","type":"S"},{"day":"Sundays","startTime":"4:00 PM","endTime":"5:00 PM","type":"C"},{"day":"Fridays","startTime":"6:15 PM","endTime":"7:15 PM","type":"C"},{"day":"Thursdays","startTime":"6:15 PM","endTime":"7:15 PM","type":"O"},{"day":"Wednesdays","startTime":"6:15 PM","endTime":"7:15 PM","type":"B"},{"day":"Tuesdays","startTime":"6:15 PM","endTime":"7:15 PM","type":"S"},{"day":"Mondays","startTime":"6:15 PM","endTime":"7:15 PM","type":"T"},{"day":"Saturdays","startTime":"6:15 PM","endTime":"7:15 PM","type":"B"},{"day":"Sundays","startTime":"6:15 PM","endTime":"7:15 PM","type":"OD"},{"day":"Sundays","startTime":"8:00 PM","endTime":"9:00 PM","type":"C"},{"day":"Fridays","startTime":"8:00 PM","endTime":"9:00 PM","type":"B"},{"day":"Wednesdays","startTime":"8:00 PM","endTime":"9:00 PM","type":"BB"},{"day":"Tuesdays","startTime":"8:00 PM","endTime":"9:00 PM","type":"C"},{"day":"Saturdays","startTime":"8:00 PM","endTime":"9:00 PM","type":"O"},{"day":"Saturdays","startTime":"10:00 PM","endTime":"11:00 PM","type":"C"},{"day":"Sundays","startTime":"10:00 PM","endTime":"11:00 PM","type":"C"},{"day":"Fridays","startTime":"10:00 PM","endTime":"11:00 PM","type":"C"},{"day":"Thursdays","startTime":"10:00 PM","endTime":"11:00 PM","type":"S"},{"day":"Tuesdays","startTime":"10:00 PM","endTime":"11:00 PM","type":"C"},{"day":"Mondays","startTime":"10:00 PM","endTime":"11:00 PM","type":"B"},{"day":"Wednesdays","startTime":"10:00 PM","endTime":"11:00 PM","type":"C"}]},{"name":"SOBER WOMEN","location":{"name":"Jan Hus Church","address":"351 East 74th Street","meetingDetails":"Women's Meeting","state":"NY","zip":"10021","adaAccessible":false,"coordinate":{"latitude":"40.7694194","longitude":"-73.9555151"}},"times":[{"day":"Saturdays","startTime":"9:15 AM","endTime":"10:15 AM","type":"C"}]},{"name":"STEP BY STEP","location":{"name":"New York Blood Center","address":"310 East 67th Street","meetingDetails":"Non-Smoking Meeting.","state":"NY","zip":"10065","adaAccessible":true,"coordinate":{"latitude":"40.7651821","longitude":"-73.9599207"}},"times":[{"day":"Saturdays","startTime":"10:00 AM","endTime":"11:00 AM","type":"S"}]},{"name":"SUNDAY ON 70TH","location":{"name":"Lenox Hill Neighborhood House","address":"331 E 70th St","meetingDetails":"","state":"NY","zip":"10021","adaAccessible":false,"coordinate":{"latitude":"40.779117","longitude":"-73.986559"}},"times":[{"day":"Sundays","startTime":"10:00 AM","endTime":"11:00 AM","type":"B"}]},{"name":"SUTTON","location":{"name":"Church of St. Catherine of Siena","address":"411 East 68th Street","meetingDetails":"Enter through Parish House","state":"NY","zip":"10021","adaAccessible":true,"coordinate":{"latitude":"40.7651081","longitude":"-73.957215"}},"times":[{"day":"Saturdays","startTime":"6:30 PM","endTime":"7:30 PM","type":"OD"}]},{"name":"THREE TWELVES","location":{"name":"Church of the Heavenly Rest","address":"2 East 90th Street","meetingDetails":"","state":"NY","zip":"10128","adaAccessible":false,"coordinate":{"latitude":"40.7836928","longitude":"-73.9578694"}},"times":[{"day":"Tuesdays","startTime":"12:00 PM","endTime":"1:00 PM","type":"C"},{"day":"Thursdays","startTime":"12:00 PM","endTime":"1:00 PM","type":"C"}]},{"name":"TRINITY","location":{"name":"Holy Trinity Church","address":"341 East 87th Street","meetingDetails":"Anniv Last Tuesday @ 7:15pm All meetings are non-smoking. Last Fri. @ 7PM = T","state":"NY","zip":"10128","adaAccessible":false,"coordinate":{"latitude":"40.7780211","longitude":"-73.9497263"}},"times":[{"day":"Fridays","startTime":"7:00 PM","endTime":"8:00 PM","type":"S"},{"day":"Tuesdays","startTime":"7:15 PM","endTime":"8:15 PM","type":"B"},{"day":"Fridays","startTime":"8:30 PM","endTime":"9:30 PM","type":"B"},{"day":"Tuesdays","startTime":"8:30 PM","endTime":"9:30 PM","type":"C"}]},{"name":"WE HUMANISTS","location":{"name":"Jan Hus Church","address":"351 East 74th Street","meetingDetails":"No prayers & a Non-Smoking Meeting.","state":"NY","zip":"10021","adaAccessible":false,"coordinate":{"latitude":"40.7694194","longitude":"-73.9555151"}},"times":[{"day":"Wednesdays","startTime":"6:15 PM","endTime":"7:15 PM","type":"C"}]},{"name":"WEDNESDAY EAST ON THURSDAY","location":{"name":"Jan Hus Church","address":"351 East 74th Street","meetingDetails":"Round Robin format","state":"NY","zip":"10021","adaAccessible":false,"coordinate":{"latitude":"40.7694194","longitude":"-73.9555151"}},"times":[{"day":"Thursdays","startTime":"8:00 PM","endTime":"9:00 PM","type":"C"}]},{"name":"YORKVILLE","location":{"name":"Jan Hus Church","address":"351 East 74th Street","meetingDetails":"Non-Smoking Meeting.","state":"NY","zip":"10021","adaAccessible":false,"coordinate":{"latitude":"40.7694194","longitude":"-73.9555151"}},"times":[{"day":"Thursdays","startTime":"8:00 PM","endTime":"9:00 PM","type":"C"}]},{"name":"A CHANCE TO LIVE AGAIN","location":{"name":"SRO Building","address":"109 West 129th Street","meetingDetails":"","state":"NY","zip":"10027","adaAccessible":true,"coordinate":{"latitude":"40.8106798","longitude":"-73.944244"}},"times":[{"day":"Wednesdays","startTime":"6:00 PM","endTime":"7:00 PM","type":"BB"},{"day":"Mondays","startTime":"7:00 PM","endTime":"8:00 PM","type":"B"}]},{"name":"AA IT WORKS  II","location":{"name":"Union Baptist Church","address":"240 West 145th Street","meetingDetails":"Thu=Altern.BB, Living Sober & Other A.A. Literature. Fri.=Alternates between Step & Tradition.","state":"NY","zip":"10039","adaAccessible":true,"coordinate":{"latitude":"40.8222189","longitude":"-73.9408621"}},"times":[{"day":"Wednesdays","startTime":"10:00 AM","endTime":"11:00 AM","type":"B"},{"day":"Thursdays","startTime":"10:00 AM","endTime":"11:00 AM","type":"BB"},{"day":"Fridays","startTime":"10:00 AM","endTime":"11:00 AM","type":"S"},{"day":"Tuesdays","startTime":"10:00 AM","endTime":"11:00 AM","type":"OD"}]},{"name":"ATTITUDE ADJUSTMENT","location":{"name":"Our Lady of Lourdes Church","address":"469 West 142nd Street","meetingDetails":"Topic 1st Saturday.","state":"NY","zip":"10031","adaAccessible":false,"coordinate":{"latitude":"40.8232166","longitude":"-73.9484769"}},"times":[{"day":"Saturdays","startTime":"7:30 AM","endTime":"8:30 AM","type":"OD"}]},{"name":"CONVENT","location":{"name":"St. Phillip Church","address":"204 West 134th Street","meetingDetails":"B-3rd Saturday","state":"NY","zip":"10030","adaAccessible":false,"coordinate":{"latitude":"40.8147959","longitude":"-73.9448542"}},"times":[{"day":"Saturdays","startTime":"11:30 AM","endTime":"1:00 PM","type":"OD"}]},{"name":"FELLOWSHIP AT NOON","location":{"name":"Spiritual Renewal Church","address":"2044 Adam Clayton Powell Blvd.","meetingDetails":"T If there is a fifth Wednesday.","state":"NY","zip":"10027","adaAccessible":false,"coordinate":{"latitude":"40.8072583","longitude":"-73.9499047"}},"times":[{"day":"Mondays","startTime":"12:15 PM","endTime":"1:15 PM","type":"B"},{"day":"Wednesdays","startTime":"12:15 PM","endTime":"1:15 PM","type":"S"},{"day":"Fridays","startTime":"12:15 PM","endTime":"1:15 PM","type":"OD"}]},{"name":"GRUPO TRASMITELO","location":{"name":"","address":"469 West 142nd Street","meetingDetails":"Spanish speaking meeting.","state":"NY","zip":"10031","adaAccessible":false,"coordinate":{"latitude":"40.8232166","longitude":"-73.9484769"}},"times":[{"day":"Thursdays","startTime":"8:00 PM","endTime":"9:00 PM","type":"B"}]},{"name":"HARLEM HUMANISTS","location":{"name":"St. Mary's Episcopal","address":"521 W 126th St","meetingDetails":"Contact in Advance for Wheelcahir Accessibility","state":"NY","zip":"10027","adaAccessible":true,"coordinate":{"latitude":"40.8148408","longitude":"-73.9561515"}},"times":[{"day":"Mondays","startTime":"12:00 PM","endTime":"1:00 PM","type":"O"}]},{"name":"K.I.S.S.","location":{"name":"SRO Building Community Room","address":"109 West 129th Street","meetingDetails":"All meetings are non-smoking.","state":"NY","zip":"10027","adaAccessible":true,"coordinate":{"latitude":"40.8106798","longitude":"-73.944244"}},"times":[{"day":"Sundays","startTime":"5:30 PM","endTime":"6:30 PM","type":"S"},{"day":"Sundays","startTime":"7:00 PM","endTime":"8:00 PM","type":"B"}]},{"name":"LEARNING TO LIVE SOBER","location":{"name":"Our Lady of Lourdes","address":"469 West 142nd Street","meetingDetails":"","state":"NY","zip":"10031","adaAccessible":false,"coordinate":{"latitude":"40.8232166","longitude":"-73.9484769"}},"times":[{"day":"Thursdays","startTime":"6:00 PM","endTime":"7:00 PM","type":"BB"}]},{"name":"LIVING CLEAN AND SOBER ON 121st STREET","location":{"name":"","address":"2044 Seventh Avenue","meetingDetails":"S 2nd, BB 3rd, OD 4th, Living Sober 5th wk.","state":"NY","zip":"10027","adaAccessible":true,"coordinate":{"latitude":"40.6639307188879","longitude":"-73.9382749875207"}},"times":[{"day":"Sundays","startTime":"6:00 PM","endTime":"7:30 PM","type":"B"}]},{"name":"MEDITATION COMES TO HARLEM","location":{"name":"S.A.G.E.","address":"127 West 127th Street","meetingDetails":"Meeting is closed on holidays","state":"NY","zip":"10027","adaAccessible":true,"coordinate":{"latitude":"40.8095378","longitude":"-73.9453852"}},"times":[{"day":"Mondays","startTime":"4:30 PM","endTime":"5:30 PM","type":"C"}]},{"name":"MID","location":{"name":"Grace Congregational Baptist Church","address":"310 West 139th Street","meetingDetails":"T 1st Monday at 7PM Open 1st Friday 8:10pm, Pitch other Fridays 8:10pm","state":"NY","zip":"10037","adaAccessible":false,"coordinate":{"latitude":"40.8192096","longitude":"-73.9453784"}},"times":[{"day":"Mondays","startTime":"7:00 PM","endTime":"8:00 PM","type":"S"},{"day":"Fridays","startTime":"7:00 PM","endTime":"8:00 PM","type":"B"},{"day":"Fridays","startTime":"8:00 PM","endTime":"9:00 PM","type":"O"}]},{"name":"MONDAY NIGHT CHALLENGE","location":{"name":"St. James Church","address":"409 West 141st Street","meetingDetails":"","state":"NY","zip":"10031","adaAccessible":false,"coordinate":{"latitude":"40.8215113","longitude":"-73.9463991"}},"times":[{"day":"Mondays","startTime":"7:00 PM","endTime":"8:00 PM","type":"B"}]},{"name":"PRIMARY PURPOSE","location":{"name":"Riverside Church","address":"91 Claremont Avenue","meetingDetails":"","state":"NY","zip":"10027","adaAccessible":true,"coordinate":{"latitude":"40.8119559","longitude":"-73.9625116"}},"times":[{"day":"Sundays","startTime":"3:00 PM","endTime":"4:00 PM","type":"OD"}]},{"name":"PROMISES TWO FOR ONE","location":{"name":"Upper Manhattan Mental Health Center","address":"1727 Amsterdam Avenue","meetingDetails":"1st Sun-OD; 2nd Sun-S; 3rd Sun-Topic; 4th Sun-T; 5th Sun-OD","state":"NY","zip":"10031","adaAccessible":true,"coordinate":{"latitude":"40.8255289","longitude":"-73.9471616"}},"times":[{"day":"Sundays","startTime":"9:30 AM","endTime":"10:30 AM","type":"B"},{"day":"Sundays","startTime":"11:00 AM","endTime":"12:00 PM","type":"C"}]},{"name":"REALITY CHECK","location":{"name":"Our Lady of Lourdes Church","address":"469 West 142nd Street","meetingDetails":"S 4th Saturday Men's Meeting","state":"NY","zip":"10037","adaAccessible":false,"coordinate":{"latitude":"40.8232166","longitude":"-73.9484769"}},"times":[{"day":"Saturdays","startTime":"5:00 PM","endTime":"6:00 PM","type":"OD"}]},{"name":"RIVERSIDE","location":{"name":"Riverside Church","address":"91 Claremont Avenue","meetingDetails":"Non-Smoking Meeting.","state":"NY","zip":"10027","adaAccessible":true,"coordinate":{"latitude":"40.8119559","longitude":"-73.9625116"}},"times":[{"day":"Mondays","startTime":"7:00 PM","endTime":"8:00 PM","type":"C"}]},{"name":"RIVERTON","location":{"name":"St. Aloysius School","address":"219 West 132nd Street","meetingDetails":"S 2nd & T 4th Tue All meetings are non-smoking.  No children allowed at meetings.","state":"NY","zip":"10027","adaAccessible":false,"coordinate":{"latitude":"40.8138548","longitude":"-73.9459315"}},"times":[{"day":"Saturdays","startTime":"3:00 PM","endTime":"4:00 PM","type":"B"},{"day":"Saturdays","startTime":"6:00 PM","endTime":"7:00 PM","type":"O"},{"day":"Tuesdays","startTime":"8:00 PM","endTime":"9:00 PM","type":""}]},{"name":"SALEM","location":{"name":"Salem United Methodist Church Community Center","address":"211 West 129th Street","meetingDetails":"O 2nd Wednesday","state":"NY","zip":"10027","adaAccessible":true,"coordinate":{"latitude":"40.8119105","longitude":"-73.9471217"}},"times":[{"day":"Wednesdays","startTime":"7:30 PM","endTime":"8:30 PM","type":"C"}]},{"name":"SOBER ADULT MEN","location":{"name":"Convent Baptist Church Education Building","address":"425 West 144th Street","meetingDetails":"Men's Meeting","state":"NY","zip":"10031","adaAccessible":true,"coordinate":{"latitude":"40.8238524","longitude":"-73.9461167"}},"times":[{"day":"Wednesdays","startTime":"7:00 PM","endTime":"8:00 PM","type":"C"}]},{"name":"ST. NICHOLAS","location":{"name":"St. Phillip's Church","address":"204 West 134th Street","meetingDetails":"S 2nd, C 3rd, BB 4th, & Grapevine 5th Thu.","state":"NY","zip":"10030","adaAccessible":true,"coordinate":{"latitude":"40.8147959","longitude":"-73.9448542"}},"times":[{"day":"Sundays","startTime":"4:00 PM","endTime":"5:00 PM","type":"O"},{"day":"Thursdays","startTime":"7:00 PM","endTime":"8:00 PM","type":"B"}]},{"name":"STEPS 3 and 11","location":{"name":"Harlem Hospital King Pavilion","address":"506 Lenox Avenue","meetingDetails":"B 1st, OD 2nd, S3 3rd, C Literature 4th, & S11 5th Sun.","state":"NY","zip":"10037","adaAccessible":true,"coordinate":{"latitude":"40.6639307188879","longitude":"-73.9382749875207"}},"times":[{"day":"Sundays","startTime":"2:00 PM","endTime":"3:00 PM","type":"B"}]},{"name":"SUGAR HILL","location":{"name":"Council Center for Problems of Living","address":"1727 Amsterdam Avenue","meetingDetails":"","state":"NY","zip":"10031","adaAccessible":true,"coordinate":{"latitude":"40.8255289","longitude":"-73.9471616"}},"times":[{"day":"Fridays","startTime":"5:30 PM","endTime":"6:30 PM","type":"B"}]},{"name":"TUESDAY BIG BOOK STUDY","location":{"name":"","address":"1854 Amsterdam Avenue","meetingDetails":"","state":"NY","zip":"10031","adaAccessible":false,"coordinate":{"latitude":"40.8295902","longitude":"-73.9446541"}},"times":[{"day":"Tuesdays","startTime":"6:00 PM","endTime":"7:00 PM","type":"BB"}]},{"name":"UPTOWN BIG BOOK WORKSHOP","location":{"name":"Our Lady of Lourdes Church","address":"469 West 142nd Street","meetingDetails":"Meeting meets each Saturday from mid-August thru mid-December","state":"NY","zip":"10031","adaAccessible":false,"coordinate":{"latitude":"40.8232166","longitude":"-73.9484769"}},"times":[{"day":"Saturdays","startTime":"9:30 AM","endTime":"11:00 AM","type":"BB"}]},{"name":"YOU MAY CARE AFTER","location":{"name":"Metropolitan AME Church","address":"58-66 West 135th Street","meetingDetails":"Non-Smoking Meeting.","state":"NY","zip":"10037","adaAccessible":true,"coordinate":{"latitude":"40.8137051","longitude":"-73.9403147"}},"times":[{"day":"Tuesdays","startTime":"6:30 PM","endTime":"7:30 PM","type":"S"}]},{"name":"125","location":{"name":"Harlem Children's Zone Admin. Offices","address":"35 East 125 Street","meetingDetails":"O 2nd, S 3rd, Anniv. 4th & BB 5th Sat.","state":"NY","zip":"10035","adaAccessible":true,"coordinate":{"latitude":"40.6639307188879","longitude":"-73.9382749875207"}},"times":[{"day":"Saturdays","startTime":"4:15 PM","endTime":"5:30 PM","type":"B"}]},{"name":"EAST HARLEM","location":{"name":"Peter Jay Sharpe Building","address":"223 East 117th Street","meetingDetails":"Living Sober 1st Tuesday.","state":"NY","zip":"10035","adaAccessible":true,"coordinate":{"latitude":"40.7982106","longitude":"-73.9382769"}},"times":[{"day":"Tuesdays","startTime":"6:30 PM","endTime":"7:30 PM","type":"B"}]},{"name":"GRUPO NUEVA VIDA","location":{"name":"","address":"2126 2nd Avenue","meetingDetails":"Spanish speaking meetings.","state":"NY","zip":"10029","adaAccessible":true,"coordinate":{"latitude":"40.7927121","longitude":"-73.94069"}},"times":[{"day":"Sundays","startTime":"5:00 PM","endTime":"6:00 PM","type":"OD"},{"day":"Mondays","startTime":"8:00 PM","endTime":"9:00 PM","type":"B"},{"day":"Tuesdays","startTime":"8:00 PM","endTime":"9:00 PM","type":"OD"},{"day":"Wednesdays","startTime":"8:00 PM","endTime":"9:00 PM","type":"C"},{"day":"Thursdays","startTime":"8:00 PM","endTime":"9:00 PM","type":"OD"},{"day":"Fridays","startTime":"8:00 PM","endTime":"9:00 PM","type":"OD"},{"day":"Saturdays","startTime":"8:00 PM","endTime":"9:00 PM","type":"OD"}]},{"name":"HARLEM 1 PM RECOVERY","location":{"name":"Veterans Residence","address":"22 East 119th Street","meetingDetails":"ID REQUIRED TO ENTER BUILDING","state":"NY","zip":"10035","adaAccessible":true,"coordinate":{"latitude":"40.8021458","longitude":"-73.9442327"}},"times":[{"day":"Sundays","startTime":"1:00 PM","endTime":"2:00 PM","type":"T"},{"day":"Mondays","startTime":"1:00 PM","endTime":"2:00 PM","type":"B"}]},{"name":"A NEW WAY OF LIVING","location":{"name":"Columbia Presbyterian Hospital","address":"701 West 168th Street @ Fort Washington Avenue","meetingDetails":"Check with Security for Room # T Last Thu, Living Sober & Anniv Last Fri. No meetings on public holidays","state":"NY","zip":"10032","adaAccessible":true,"coordinate":{"latitude":"40.8424566","longitude":"-73.9424508"}},"times":[{"day":"Thursdays","startTime":"12:00 PM","endTime":"1:00 PM","type":"S"},{"day":"Fridays","startTime":"12:00 PM","endTime":"1:00 PM","type":"C"},{"day":"Mondays","startTime":"12:00 PM","endTime":"1:00 PM","type":"BB"},{"day":"Tuesdays","startTime":"12:00 PM","endTime":"1:00 PM","type":"B"},{"day":"Wednesdays","startTime":"12:00 PM","endTime":"1:00 PM","type":"C"}]},{"name":"BRIDGE TO SOBRIETY (:I)","location":{"name":"Holy Rood Church","address":"715 West 179th Street","meetingDetails":"Living Sober Last Tuesday, T Last Wednesday","state":"NY","zip":"10033","adaAccessible":false,"coordinate":{"latitude":"40.8466101","longitude":"-73.8892442"}},"times":[{"day":"Mondays","startTime":"10:00 AM","endTime":"11:00 AM","type":"OD"},{"day":"Tuesdays","startTime":"10:00 AM","endTime":"11:00 AM","type":"B"},{"day":"Wednesdays","startTime":"10:00 AM","endTime":"11:00 AM","type":"BB"},{"day":"Thursdays","startTime":"10:00 AM","endTime":"11:00 AM","type":"S"},{"day":"Fridays","startTime":"10:00 AM","endTime":"11:00 AM","type":"OD"}]},{"name":"BRIDGE TO SOBRIETY (:II)","location":{"name":"Holy Rood Church","address":"715 West 179th Street","meetingDetails":"10th Step","state":"NY","zip":"10040","adaAccessible":true,"coordinate":{"latitude":"40.8466101","longitude":"-73.8892442"}},"times":[{"day":"Sundays","startTime":"10:00 AM","endTime":"11:00 AM","type":"S"}]},{"name":"DYCKMAN","location":{"name":"St. Jude's School","address":"431 West 204th Street","meetingDetails":"BB 1st & T Last Wed.","state":"NY","zip":"10034","adaAccessible":false,"coordinate":{"latitude":"40.8620908","longitude":"-73.918918"}},"times":[{"day":"Sundays","startTime":"12:00 PM","endTime":"1:00 PM","type":"O"},{"day":"Wednesdays","startTime":"7:00 PM","endTime":"8:00 PM","type":"S"}]},{"name":"FOUND","location":{"name":"Church of the Intercession","address":"550 West 155th Street","meetingDetails":"Men's meeting & Gay men's focus. All are welcome. Anniversary last Sat., 1st Sat.=S followed by Bus. Mtg.","state":"NY","zip":"10032","adaAccessible":false,"coordinate":{"latitude":"40.8321897","longitude":"-73.945059"}},"times":[{"day":"Saturdays","startTime":"12:30 PM","endTime":"2:00 PM","type":"C"}]},{"name":"GRUPO DESPERTAR","location":{"name":"Casita Esperanza","address":"557 West 156th Street","meetingDetails":"Spanish Speaking Meetings.","state":"NY","zip":"10032","adaAccessible":true,"coordinate":{"latitude":"40.8333254","longitude":"-73.9446563"}},"times":[{"day":"Wednesdays","startTime":"8:00 PM","endTime":"10:00 PM","type":"C"},{"day":"Fridays","startTime":"8:00 PM","endTime":"10:00 PM","type":"OD"}]},{"name":"GRUPO LA FLAMA PANAMERICANA","location":{"name":"","address":"35 Thayer Street","meetingDetails":"Spanish speaking meetings.","state":"NY","zip":"10040","adaAccessible":true,"coordinate":{"latitude":"40.6639307188879","longitude":"-73.9382749875207"}},"times":[{"day":"Sundays","startTime":"5:00 PM","endTime":"7:00 PM","type":"O"},{"day":"Tuesdays","startTime":"8:00 PM","endTime":"10:00 PM","type":"O"},{"day":"Thursdays","startTime":"8:00 PM","endTime":"10:00 PM","type":"O"},{"day":"Saturdays","startTime":"8:00 PM","endTime":"10:00 PM","type":"O"}]},{"name":"GRUPO LIBERTAD","location":{"name":"Episcopal Holy Rood Church","address":"715 West 179th Street","meetingDetails":"Spanish speaking meetings.","state":"NY","zip":"10033","adaAccessible":true,"coordinate":{"latitude":"40.8466101","longitude":"-73.8892442"}},"times":[{"day":"Tuesdays","startTime":"7:30 PM","endTime":"8:30 PM","type":"BB"},{"day":"Thursdays","startTime":"7:30 PM","endTime":"8:30 PM","type":"BB"},{"day":"Thursdays","startTime":"9:30 PM","endTime":"10:30 AM","type":"C"},{"day":"Tuesdays","startTime":"9:30 PM","endTime":"10:30 PM","type":"C"}]},{"name":"GRUPO RECUPERACION","location":{"name":"Church Santa Rosa de Lima","address":"502 West165th Street","meetingDetails":"Spanish speaking meetings.","state":"NY","zip":"10032","adaAccessible":false,"coordinate":{"latitude":"40.6639307188879","longitude":"-73.9382749875207"}},"times":[{"day":"Sundays","startTime":"2:30 PM","endTime":"3:30 PM","type":"O"},{"day":"Tuesdays","startTime":"8:00 PM","endTime":"9:00 PM","type":"C"},{"day":"Thursdays","startTime":"8:00 PM","endTime":"9:00 PM","type":"O"}]},{"name":"GRUPO UN NUEVO AMANECER","location":{"name":"Our Lady Queen of Martyrs","address":"91 Arden Street","meetingDetails":"Spanish Speaking Meetings.","state":"NY","zip":"10034","adaAccessible":false,"coordinate":{"latitude":"40.8639073","longitude":"-73.9282532"}},"times":[{"day":"Mondays","startTime":"8:00 PM","endTime":"9:00 PM","type":"C"},{"day":"Fridays","startTime":"8:00 PM","endTime":"9:00 PM","type":"OD"}]},{"name":"HAPPY DESTINY","location":{"name":"Holy Trinity Episcopal Church","address":"20 Cumming Street","meetingDetails":"LGBT All welcome. Sun= As Bill See it; Wed=Steps1-3 Sun.meeting in Sanctuary; Wed meeting in Auditorium","state":"NY","zip":"10034","adaAccessible":false,"coordinate":{"latitude":"40.6639307188879","longitude":"-73.9382749875207"}},"times":[{"day":"Sundays","startTime":"7:30 PM","endTime":"8:30 PM","type":"C"},{"day":"Wednesdays","startTime":"7:30 PM","endTime":"8:30 PM","type":"B"}]},{"name":"INWOOD FORT TRYON","location":{"name":"Mount Washington Presbyterian Church","address":"84 Vermilyea Avenue","meetingDetails":"Sat. Closed meeting rotating step/speaker/trad/anniversary In Dec. first two weeks will be Step meeting","state":"NY","zip":"10034","adaAccessible":false,"coordinate":{"latitude":"40.86596","longitude":"-73.9231447"}},"times":[{"day":"Saturdays","startTime":"11:00 AM","endTime":"12:00 PM","type":"B"},{"day":"Saturdays","startTime":"11:00 AM","endTime":"12:00 PM","type":"C"},{"day":"Tuesdays","startTime":"12:30 PM","endTime":"1:30 PM","type":"C"}]},{"name":"ISHAM PARK","location":{"name":"Church of the Good Shepherd","address":"620 Isham Street","meetingDetails":"Open Anniv. Last Mon.","state":"NY","zip":"10034","adaAccessible":false,"coordinate":{"latitude":"40.8692449","longitude":"-73.9206611"}},"times":[{"day":"Mondays","startTime":"8:00 PM","endTime":"9:00 PM","type":"C"}]},{"name":"PROGRESS NOT PERFECTION","location":{"name":"COATHA Church on the Hill Senior Center","address":"2005 Amsterdam Avenue","meetingDetails":"Open Discussion 1st, 2nd, 4th,and 5th when applicable. OPEN meeting is 3rd Fridays","state":"NY","zip":"10032","adaAccessible":true,"coordinate":{"latitude":"40.8342553","longitude":"-73.9407968"}},"times":[{"day":"Fridays","startTime":"7:30 PM","endTime":"8:30 PM","type":"OD"}]},{"name":"THE MEN UPSTAIRS","location":{"name":"Our Saviour's Atonement Lutheran Church","address":"178 Bennett Avenue","meetingDetails":"Men's Meeting","state":"NY","zip":"10040","adaAccessible":false,"coordinate":{"latitude":"40.6639307188879","longitude":"-73.9382749875207"}},"times":[{"day":"Mondays","startTime":"8:00 PM","endTime":"9:00 PM","type":"C"}]},{"name":"THE MISSING LINK","location":{"name":"Our Saviour's Atonement Church","address":"178 Bennett Avenue","meetingDetails":"1st- Step, 2nd-OD, 3rd-Beg., 4th- BB, 5th- OD","state":"NY","zip":"10040","adaAccessible":false,"coordinate":{"latitude":"40.6639307188879","longitude":"-73.9382749875207"}},"times":[{"day":"Fridays","startTime":"7:00 PM","endTime":"8:00 PM","type":"BB"}]},{"name":"UPPER MANHATTAN","location":{"name":"Our Lady Queen of Martyrs","address":"91 Arden Street","meetingDetails":"","state":"NY","zip":"10034","adaAccessible":false,"coordinate":{"latitude":"40.8639073","longitude":"-73.9282532"}},"times":[{"day":"Thursdays","startTime":"7:30 PM","endTime":"8:30 PM","type":"OD"}]},{"name":"UPTOWN SATURDAY NIGHT","location":{"name":"Holy Trinity Church","address":"20 Cummings Street","meetingDetails":"","state":"NY","zip":"10034","adaAccessible":false,"coordinate":{"latitude":"40.6639307188879","longitude":"-73.9382749875207"}},"times":[{"day":"Saturdays","startTime":"7:00 PM","endTime":"8:00 PM","type":"C"}]},{"name":"WASHINGTON HEIGHTS                  (:I)","location":{"name":"Holy Rood Church","address":"715 West 179th Street","meetingDetails":"","state":"NY","zip":"10033","adaAccessible":true,"coordinate":{"latitude":"40.8466101","longitude":"-73.8892442"}},"times":[{"day":"Tuesdays","startTime":"7:30 PM","endTime":"8:30 PM","type":"O"}]},{"name":"WASHINGTON HEIGHTS                 (:II)","location":{"name":"Cornerstone Center","address":"189th Street & Bennett Avenue","meetingDetails":"","state":"NY","zip":"10040","adaAccessible":false,"coordinate":{"latitude":"40.6639307188879","longitude":"-73.9382749875207"}},"times":[{"day":"Thursdays","startTime":"7:30 PM","endTime":"8:30 PM","type":"C"}]},{"name":"WHAT WE ARE LIKE NOW","location":{"name":"The Corner Stone Center","address":"178 Bennett Avenue","meetingDetails":"","state":"NY","zip":"10040","adaAccessible":false,"coordinate":{"latitude":"40.6639307188879","longitude":"-73.9382749875207"}},"times":[{"day":"Sundays","startTime":"6:00 PM","endTime":"7:00 PM","type":"C"}]},{"name":"WOMEN'S NITE","location":{"name":"Cornerstone Center","address":"178 Bennett Avenue","meetingDetails":"","state":"NY","zip":"10040","adaAccessible":false,"coordinate":{"latitude":"40.6639307188879","longitude":"-73.9382749875207"}},"times":[{"day":"Mondays","startTime":"7:30 PM","endTime":"8:30 PM","type":"BB"}]}]